ComSquarepushJsonzips.load_zips({"00785":{"lat":"18.0291","state":"PR","long":"-66.792","city":"Guayama"},"00741":{"lat":"18.168333","state":"PR","long":"-65.748611","city":"Punta Santiago"},"00730":{"lat":"18.284167","state":"PR","long":"-67.1425","city":"Ponce"},"00719":{"lat":"18.301667","state":"PR","long":"-66.246667","city":"Naranjito"},"00786":{"lat":"18.156389","state":"PR","long":"-66.233333","city":"La Plata"},"00775":{"lat":"18.305","state":"PR","long":"-65.301389","city":"Culebra"},"00742":{"lat":"18.2674","state":"PR","long":"-65.6483","city":"Roosevelt Roads"},"00731":{"lat":"18.0952","state":"PR","long":"-66.6285","city":"Ponce"},"00720":{"lat":"18.228889","state":"PR","long":"-66.391389","city":"Orocovis"},"00765":{"lat":"18.426389","state":"PR","long":"-65.835556","city":"Vieques"},"00754":{"lat":"18.191389","state":"PR","long":"-65.961389","city":"San Lorenzo"},"00732":{"lat":"18.00506","state":"PR","long":"-66.61256","city":"Ponce"},"00721":{"lat":"18.3725","state":"PR","long":"-65.774444","city":"Palmer"},"00777":{"lat":"18.229444","state":"PR","long":"-65.921389","city":"Juncos"},"00766":{"lat":"18.129167","state":"PR","long":"-66.4925","city":"Villalba"},"00744":{"lat":"18.220278","state":"PR","long":"-65.788889","city":"Rio Blanco"},"00733":{"lat":"18.00529","state":"PR","long":"-66.61231","city":"Ponce"},"00778":{"lat":"18.255","state":"PR","long":"-65.9775","city":"Gurabo"},"00767":{"lat":"18.0525","state":"PR","long":"-65.879722","city":"Yabucoa"},"00745":{"lat":"18.379444","state":"PR","long":"-65.838889","city":"Rio Grande"},"00734":{"lat":"18.00503","state":"PR","long":"-66.61225","city":"Ponce"},"00723":{"lat":"18.008333","state":"PR","long":"-66.013333","city":"Patillas"},"00757":{"lat":"17.968056","state":"PR","long":"-66.405278","city":"Santa Isabel"},"00735":{"lat":"18.2531","state":"PR","long":"-65.656","city":"Ceiba"},"00791":{"lat":"18.1415","state":"PR","long":"-65.8216","city":"Humacao"},"00780":{"lat":"18.0545","state":"PR","long":"-66.5625","city":"Coto Laurel"},"00769":{"lat":"18.081944","state":"PR","long":"-66.358333","city":"Coamo"},"00736":{"lat":"18.1134","state":"PR","long":"-66.1521","city":"Cayey"},"00725":{"lat":"18.2297","state":"PR","long":"-66.0458","city":"Caguas"},"00714":{"lat":"17.963333","state":"PR","long":"-66.063333","city":"Arroyo"},"00703":{"lat":"18.258333","state":"PR","long":"-66.105","city":"Aguas Buenas"},"00792":{"lat":"18.1522","state":"PR","long":"-65.8221","city":"Humacao"},"00737":{"lat":"18.115","state":"PR","long":"-66.1669","city":"Cayey"},"00726":{"lat":"18.2381","state":"PR","long":"-66.0372","city":"Caguas"},"00715":{"lat":"18.0052","state":"PR","long":"-66.5602","city":"Mercedita"},"00704":{"lat":"18.25","state":"PR","long":"-66.103056","city":"Aguirre"},"00782":{"lat":"18.218333","state":"PR","long":"-66.225","city":"Comerio"},"00771":{"lat":"18.183333","state":"PR","long":"-65.863333","city":"Las Piedras"},"00738":{"lat":"18.330278","state":"PR","long":"-65.657222","city":"Fajardo"},"00727":{"lat":"18.2194","state":"PR","long":"-66.0525","city":"Caguas"},"00716":{"lat":"18.015556","state":"PR","long":"-66.58","city":"Ponce"},"00705":{"lat":"18.141667","state":"PR","long":"-66.265","city":"Aibonito"},"00794":{"lat":"18.188333","state":"PR","long":"-66.308333","city":"Barranquitas"},"00783":{"lat":"18.343056","state":"PR","long":"-66.317222","city":"Corozal"},"00772":{"lat":"18.433333","state":"PR","long":"-65.880556","city":"Loiza"},"00739":{"lat":"18.176667","state":"PR","long":"-66.161667","city":"Cidra"},"00728":{"lat":"18.0085","state":"PR","long":"-66.6505","city":"Ponce"},"00717":{"lat":"18.0035","state":"PR","long":"-66.6119","city":"Ponce"},"00795":{"lat":"18.054444","state":"PR","long":"-66.506944","city":"Juana Diaz"},"00784":{"lat":"17.9856","state":"PR","long":"-66.1307","city":"Guayama"},"00773":{"lat":"18.374444","state":"PR","long":"-65.716944","city":"Luquillo"},"00751":{"lat":"17.979444","state":"PR","long":"-66.298333","city":"Salinas"},"00740":{"lat":"18.079167","state":"PR","long":"-67.185556","city":"Puerto Real"},"00729":{"lat":"18.379722","state":"PR","long":"-65.906667","city":"Canovanas"},"00718":{"lat":"18.213333","state":"PR","long":"-65.736667","city":"Naguabo"},"00707":{"lat":"18.009167","state":"PR","long":"-65.899722","city":"Maunabo"}});