ComSquarepushJsonzips.load_zips({"01984":{"lat":"42.60166","state":"MA","long":"-70.878622","city":"Wenham"},"01951":{"lat":"42.783475","state":"MA","long":"-70.847377","city":"Newbury"},"01940":{"lat":"42.532711","state":"MA","long":"-71.033873","city":"Lynnfield"},"01929":{"lat":"42.628629","state":"MA","long":"-70.782794","city":"Essex"},"01907":{"lat":"42.474611","state":"MA","long":"-70.909774","city":"Swampscott"},"01985":{"lat":"42.794865","state":"MA","long":"-70.977811","city":"West Newbury"},"01952":{"lat":"42.850678","state":"MA","long":"-70.858822","city":"Salisbury"},"01930":{"lat":"42.620836","state":"MA","long":"-70.672149","city":"Gloucester"},"01931":{"lat":"42.615833","state":"MA","long":"-70.6625","city":"Gloucester"},"01908":{"lat":"42.426098","state":"MA","long":"-70.927739","city":"Nahant"},"01965":{"lat":"42.559722","state":"MA","long":"-70.825","city":"Prides Crossing"},"01921":{"lat":"42.679719","state":"MA","long":"-71.011372","city":"Boxford"},"01910":{"lat":"42.453849","state":"MA","long":"-70.97563","city":"Lynn"},"01966":{"lat":"42.657973","state":"MA","long":"-70.619424","city":"Rockport"},"01944":{"lat":"42.57963","state":"MA","long":"-70.767434","city":"Manchester"},"01922":{"lat":"42.756792","state":"MA","long":"-70.935053","city":"Byfield"},"01945":{"lat":"42.498431","state":"MA","long":"-70.865291","city":"Marblehead"},"01923":{"lat":"42.569402","state":"MA","long":"-70.942461","city":"Danvers"},"01901":{"lat":"42.463378","state":"MA","long":"-70.945516","city":"Lynn"},"01913":{"lat":"42.855879","state":"MA","long":"-70.936681","city":"Amesbury"},"01902":{"lat":"42.469814","state":"MA","long":"-70.941989","city":"Lynn"},"01969":{"lat":"42.713753","state":"MA","long":"-70.90696","city":"Rowley"},"01936":{"lat":"42.618333","state":"MA","long":"-70.856667","city":"Hamilton"},"01903":{"lat":"42.4647","state":"MA","long":"-70.9467","city":"Lynn"},"01970":{"lat":"42.515114","state":"MA","long":"-70.900343","city":"Salem"},"01937":{"lat":"42.586111","state":"MA","long":"-70.975","city":"Hathorne"},"01915":{"lat":"42.560825","state":"MA","long":"-70.875939","city":"Beverly"},"01904":{"lat":"42.487453","state":"MA","long":"-70.962798","city":"Lynn"},"01982":{"lat":"42.618478","state":"MA","long":"-70.856132","city":"South Hamilton"},"01971":{"lat":"42.519444","state":"MA","long":"-70.897222","city":"Salem"},"01960":{"lat":"42.532579","state":"MA","long":"-70.961194","city":"Peabody"},"01949":{"lat":"42.594184","state":"MA","long":"-71.013004","city":"Middleton"},"01938":{"lat":"42.680877","state":"MA","long":"-70.849353","city":"Ipswich"},"01905":{"lat":"42.46453","state":"MA","long":"-70.973825","city":"Lynn"},"01983":{"lat":"42.641546","state":"MA","long":"-70.948843","city":"Topsfield"},"01961":{"lat":"42.527778","state":"MA","long":"-70.929167","city":"Peabody"},"01950":{"lat":"42.812964","state":"MA","long":"-70.884668","city":"Newburyport"},"01906":{"lat":"42.463344","state":"MA","long":"-71.011093","city":"Saugus"}});