ComSquarepushJsonzips.load_zips({"04937":{"lat":"44.609639","state":"ME","long":"-69.63321","city":"Fairfield"},"04958":{"lat":"44.879662","state":"ME","long":"-69.911946","city":"North Anson"},"04979":{"lat":"44.967605","state":"ME","long":"-69.833018","city":"Solon"},"04917":{"lat":"44.46875","state":"ME","long":"-69.860636","city":"Belgrade"},"04938":{"lat":"44.665339","state":"ME","long":"-70.132878","city":"Farmington"},"04981":{"lat":"44.514056","state":"ME","long":"-68.855974","city":"Stockton Springs"},"04918":{"lat":"44.511103","state":"ME","long":"-69.863681","city":"Belgrade Lakes"},"04940":{"lat":"44.620833","state":"ME","long":"-70.075833","city":"Farmington Falls"},"04939":{"lat":"45.038333","state":"ME","long":"-69.160833","city":"Garland"},"04961":{"lat":"44.95524","state":"ME","long":"-70.043268","city":"New Portland"},"04982":{"lat":"45.123197","state":"ME","long":"-70.431928","city":"Stratton"},"04920":{"lat":"45.068241","state":"ME","long":"-69.885721","city":"Bingham"},"04941":{"lat":"44.463311","state":"ME","long":"-69.319045","city":"Freedom"},"04962":{"lat":"44.477748","state":"ME","long":"-69.57808","city":"North Vassalboro"},"04983":{"lat":"44.82236","state":"ME","long":"-70.222054","city":"Strong"},"04942":{"lat":"45.003926","state":"ME","long":"-69.56871","city":"Harmony"},"04963":{"lat":"44.51729","state":"ME","long":"-69.740082","city":"Oakland"},"04984":{"lat":"44.695417","state":"ME","long":"-70.242635","city":"Temple"},"04921":{"lat":"44.567807","state":"ME","long":"-69.140393","city":"Brooks"},"04964":{"lat":"44.966389","state":"ME","long":"-70.774167","city":"Oquossoc"},"04985":{"lat":"45.383905","state":"ME","long":"-69.984057","city":"West Forks"},"04901":{"lat":"44.547967","state":"ME","long":"-69.635917","city":"Waterville"},"04922":{"lat":"44.684766","state":"ME","long":"-69.380049","city":"Burnham"},"04943":{"lat":"44.878155","state":"ME","long":"-69.471754","city":"Hartland"},"04986":{"lat":"44.574406","state":"ME","long":"-69.248658","city":"Thorndike"},"04923":{"lat":"45.051281","state":"ME","long":"-69.44193","city":"Cambridge"},"04944":{"lat":"44.685556","state":"ME","long":"-69.633056","city":"Hinckley"},"04965":{"lat":"44.857578","state":"ME","long":"-69.381084","city":"Palmyra"},"04987":{"lat":"44.675657","state":"ME","long":"-69.25488","city":"Troy"},"04903":{"lat":"44.551944","state":"ME","long":"-69.632222","city":"Waterville"},"04924":{"lat":"44.744976","state":"ME","long":"-69.549777","city":"Canaan"},"04945":{"lat":"45.635081","state":"ME","long":"-70.249227","city":"Jackman"},"04966":{"lat":"44.837486","state":"ME","long":"-70.360079","city":"Phillips"},"04988":{"lat":"44.600676","state":"ME","long":"-69.332778","city":"Unity"},"04925":{"lat":"45.240999","state":"ME","long":"-69.938617","city":"Caratunk"},"04967":{"lat":"44.787109","state":"ME","long":"-69.40223","city":"Pittsfield"},"04989":{"lat":"44.440455","state":"ME","long":"-69.651904","city":"Vassalboro"},"04926":{"lat":"44.448333","state":"ME","long":"-69.518611","city":"China Village"},"04947":{"lat":"44.985403","state":"ME","long":"-70.183177","city":"Kingfield"},"04927":{"lat":"44.643995","state":"ME","long":"-69.528405","city":"Clinton"},"04970":{"lat":"44.96306","state":"ME","long":"-70.665844","city":"Rangeley"},"04969":{"lat":"44.769938","state":"ME","long":"-69.226562","city":"Plymouth"},"04992":{"lat":"44.662778","state":"ME","long":"-70.155833","city":"West Farmington"},"04928":{"lat":"44.926045","state":"ME","long":"-69.232341","city":"Corinna"},"04950":{"lat":"44.809623","state":"ME","long":"-69.8449","city":"Madison"},"04949":{"lat":"44.374085","state":"ME","long":"-69.33058","city":"Liberty"},"04971":{"lat":"44.929264","state":"ME","long":"-69.399179","city":"Saint Albans"},"04930":{"lat":"45.020347","state":"ME","long":"-69.279654","city":"Dexter"},"04929":{"lat":"44.777526","state":"ME","long":"-69.316081","city":"Detroit"},"04951":{"lat":"44.592674","state":"ME","long":"-69.03169","city":"Monroe"},"04972":{"lat":"44.514722","state":"ME","long":"-68.813333","city":"Sandy Point"},"04952":{"lat":"44.410693","state":"ME","long":"-69.147105","city":"Morrill"},"04973":{"lat":"44.377035","state":"ME","long":"-69.219579","city":"Searsmont"},"04910":{"lat":"44.535527","state":"ME","long":"-69.468286","city":"Albion"},"04953":{"lat":"44.839264","state":"ME","long":"-69.267498","city":"Newport"},"04974":{"lat":"44.487672","state":"ME","long":"-68.931125","city":"Searsport"},"04911":{"lat":"44.783107","state":"ME","long":"-69.930856","city":"Anson"},"04932":{"lat":"44.699078","state":"ME","long":"-69.102532","city":"Dixmont"},"04975":{"lat":"44.627778","state":"ME","long":"-69.586944","city":"Shawmut"},"04912":{"lat":"44.938844","state":"ME","long":"-69.669482","city":"Athens"},"04933":{"lat":"44.820833","state":"ME","long":"-69.223056","city":"East Newport"},"04954":{"lat":"44.885571","state":"ME","long":"-70.092857","city":"New Portland"},"04955":{"lat":"44.645803","state":"ME","long":"-70.013927","city":"New Sharon"},"04976":{"lat":"44.777212","state":"ME","long":"-69.697571","city":"Skowhegan"},"04935":{"lat":"44.447778","state":"ME","long":"-69.606389","city":"East Vassalboro"},"04956":{"lat":"44.796658","state":"ME","long":"-70.121953","city":"New Vineyard"},"04915":{"lat":"44.435436","state":"ME","long":"-69.014753","city":"Belfast"},"04936":{"lat":"45.162559","state":"ME","long":"-70.457067","city":"Eustis"},"04957":{"lat":"44.68994","state":"ME","long":"-69.830583","city":"Norridgewock"},"04978":{"lat":"44.630107","state":"ME","long":"-69.807496","city":"Smithfield"}});