ComSquarepushJsonzips.load_zips({"05361":{"lat":"42.790071","state":"VT","long":"-72.856001","city":"Whitingham"},"05350":{"lat":"42.78367","state":"VT","long":"-72.960886","city":"Readsboro"},"05362":{"lat":"42.948151","state":"VT","long":"-72.658406","city":"Williamsville"},"05351":{"lat":"42.938056","state":"VT","long":"-72.705833","city":"South Newfane"},"05340":{"lat":"43.161831","state":"VT","long":"-72.912768","city":"Bondville"},"05363":{"lat":"42.881216","state":"VT","long":"-72.861316","city":"Wilmington"},"05352":{"lat":"42.76962","state":"VT","long":"-73.069068","city":"Stamford"},"05341":{"lat":"42.950508","state":"VT","long":"-72.783032","city":"East Dover"},"05353":{"lat":"43.062174","state":"VT","long":"-72.668676","city":"Townshend"},"05342":{"lat":"42.777752","state":"VT","long":"-72.807121","city":"Jacksonville"},"05354":{"lat":"42.756468","state":"VT","long":"-72.511547","city":"Vernon"},"05343":{"lat":"43.104235","state":"VT","long":"-72.794409","city":"Jamaica"},"05355":{"lat":"43.032649","state":"VT","long":"-72.807687","city":"Wardsboro"},"05344":{"lat":"42.859444","state":"VT","long":"-72.726389","city":"Marlboro"},"05356":{"lat":"42.956029","state":"VT","long":"-72.854235","city":"West Dover"},"05345":{"lat":"42.97043","state":"VT","long":"-72.678078","city":"Newfane"},"05301":{"lat":"42.857353","state":"VT","long":"-72.593322","city":"Brattleboro"},"05357":{"lat":"42.926389","state":"VT","long":"-72.615833","city":"West Dummerston"},"05346":{"lat":"43.035561","state":"VT","long":"-72.512272","city":"Putney"},"05302":{"lat":"42.85204","state":"VT","long":"-72.55874","city":"Brattleboro"},"05358":{"lat":"42.776103","state":"VT","long":"-72.750142","city":"West Halifax"},"05303":{"lat":"42.85258","state":"VT","long":"-72.55931","city":"Brattleboro"},"05359":{"lat":"43.130044","state":"VT","long":"-72.720985","city":"West Townshend"},"05304":{"lat":"42.8525","state":"VT","long":"-72.55882","city":"Brattleboro"},"05360":{"lat":"43.047221","state":"VT","long":"-72.880537","city":"West Wardsboro"}});