ComSquarepushJsonzips.load_zips({"06384":{"lat":"41.583053","state":"CT","long":"-71.855002","city":"Voluntown"},"06373":{"lat":"41.693611","state":"CT","long":"-71.808889","city":"Oneco"},"06351":{"lat":"41.605182","state":"CT","long":"-71.980759","city":"Jewett City"},"06340":{"lat":"41.357171","state":"CT","long":"-72.057947","city":"Groton"},"06385":{"lat":"41.346853","state":"CT","long":"-72.145816","city":"Waterford"},"06374":{"lat":"41.67753","state":"CT","long":"-71.921968","city":"Plainfield"},"06330":{"lat":"41.62629","state":"CT","long":"-72.077499","city":"Baltic"},"06386":{"lat":"41.347222","state":"CT","long":"-72.131111","city":"Waterford"},"06375":{"lat":"41.40324","state":"CT","long":"-72.11722","city":"Quaker Hill"},"06353":{"lat":"41.445331","state":"CT","long":"-72.126476","city":"Montville"},"06331":{"lat":"41.684403","state":"CT","long":"-72.000985","city":"Canterbury"},"06320":{"lat":"41.350718","state":"CT","long":"-72.106245","city":"New London"},"06387":{"lat":"41.744167","state":"CT","long":"-71.909722","city":"Wauregan"},"06376":{"lat":"41.305278","state":"CT","long":"-72.258889","city":"South Lyme"},"06365":{"lat":"41.522061","state":"CT","long":"-72.021079","city":"Preston"},"06354":{"lat":"41.721031","state":"CT","long":"-71.884962","city":"Moosup"},"06332":{"lat":"41.722778","state":"CT","long":"-71.907222","city":"Central Village"},"06388":{"lat":"41.354167","state":"CT","long":"-71.966944","city":"West Mystic"},"06377":{"lat":"41.715629","state":"CT","long":"-71.819588","city":"Sterling"},"06355":{"lat":"41.361626","state":"CT","long":"-71.977364","city":"Mystic"},"06333":{"lat":"41.366806","state":"CT","long":"-72.232987","city":"East Lyme"},"06389":{"lat":"41.559722","state":"CT","long":"-72.124167","city":"Yantic"},"06378":{"lat":"41.366437","state":"CT","long":"-71.915544","city":"Stonington"},"06334":{"lat":"41.546515","state":"CT","long":"-72.171078","city":"Bozrah"},"06390":{"lat":"41.263934","state":"NY","long":"-72.017834","city":"Fishers Island"},"06379":{"lat":"41.373475","state":"CT","long":"-71.847761","city":"Pawcatuck"},"06357":{"lat":"41.3253","state":"CT","long":"-72.210819","city":"Niantic"},"06335":{"lat":"41.42852","state":"CT","long":"-72.06719","city":"Gales Ferry"},"06380":{"lat":"41.565263","state":"CT","long":"-72.052877","city":"Taftville"},"06336":{"lat":"41.58117","state":"CT","long":"-72.126623","city":"Gilman"},"06370":{"lat":"41.470573","state":"CT","long":"-72.190358","city":"Oakdale"},"06359":{"lat":"41.453113","state":"CT","long":"-71.872701","city":"North Stonington"},"06382":{"lat":"41.462168","state":"CT","long":"-72.112556","city":"Uncasville"},"06371":{"lat":"41.334745","state":"CT","long":"-72.308562","city":"Old Lyme"},"06360":{"lat":"41.537055","state":"CT","long":"-72.08494","city":"Norwich"},"06349":{"lat":"41.397648","state":"CT","long":"-72.090058","city":"Groton"},"06338":{"lat":"41.4757","state":"CT","long":"-71.9574","city":"Mashantucket"},"06383":{"lat":"41.601667","state":"CT","long":"-72.037778","city":"Versailles"},"06372":{"lat":"41.391389","state":"CT","long":"-71.962222","city":"Old Mystic"},"06350":{"lat":"41.6425","state":"CT","long":"-72.065833","city":"Hanover"},"06339":{"lat":"41.44014","state":"CT","long":"-71.995626","city":"Ledyard"}});