ComSquarepushJsonzips.load_zips({"07878":{"lat":"40.873611","state":"NJ","long":"-74.479167","city":"Mount Tabor"},"07856":{"lat":"40.928267","state":"NJ","long":"-74.636331","city":"Mount Arlington"},"07845":{"lat":"40.822778","state":"NJ","long":"-74.626111","city":"Ironia"},"07834":{"lat":"40.889735","state":"NJ","long":"-74.484379","city":"Denville"},"07823":{"lat":"40.830819","state":"NJ","long":"-75.050261","city":"Belvidere"},"07801":{"lat":"40.887218","state":"NJ","long":"-74.559702","city":"Dover"},"07890":{"lat":"41.146389","state":"NJ","long":"-74.752778","city":"Branchville"},"07879":{"lat":"40.956111","state":"NJ","long":"-74.808889","city":"Tranquility"},"07857":{"lat":"40.898497","state":"NJ","long":"-74.698454","city":"Netcong"},"07846":{"lat":"40.964444","state":"NJ","long":"-74.878889","city":"Johnsonburg"},"07802":{"lat":"40.8848","state":"NJ","long":"-74.5588","city":"Dover"},"07880":{"lat":"40.868611","state":"NJ","long":"-74.889444","city":"Vienna"},"07869":{"lat":"40.845557","state":"NJ","long":"-74.572519","city":"Randolph"},"07847":{"lat":"40.881901","state":"NJ","long":"-74.620984","city":"Kenvil"},"07836":{"lat":"40.845316","state":"NJ","long":"-74.70188","city":"Flanders"},"07825":{"lat":"40.967386","state":"NJ","long":"-74.965097","city":"Blairstown"},"07803":{"lat":"40.8782","state":"NJ","long":"-74.5978","city":"Mine Hill"},"07881":{"lat":"41.134332","state":"NJ","long":"-74.917595","city":"Wallpack Center"},"07870":{"lat":"40.799167","state":"NJ","long":"-74.814167","city":"Schooleys Mountain"},"07848":{"lat":"41.076099","state":"NJ","long":"-74.691223","city":"Lafayette"},"07837":{"lat":"40.986389","state":"NJ","long":"-74.633889","city":"Glasser"},"07826":{"lat":"41.170512","state":"NJ","long":"-74.750025","city":"Branchville"},"07882":{"lat":"40.75818","state":"NJ","long":"-74.991361","city":"Washington"},"07871":{"lat":"41.027697","state":"NJ","long":"-74.640701","city":"Sparta"},"07860":{"lat":"41.058275","state":"NJ","long":"-74.780191","city":"Newton"},"07849":{"lat":"40.965882","state":"NJ","long":"-74.614438","city":"Lake Hopatcong"},"07838":{"lat":"40.85196","state":"NJ","long":"-74.941806","city":"Great Meadows"},"07827":{"lat":"41.302259","state":"NJ","long":"-74.753956","city":"Montague"},"07850":{"lat":"40.908684","state":"NJ","long":"-74.655425","city":"Landing"},"07839":{"lat":"40.973889","state":"NJ","long":"-74.821389","city":"Greendell"},"07828":{"lat":"40.873108","state":"NJ","long":"-74.742552","city":"Budd Lake"},"07806":{"lat":"40.8866","state":"NJ","long":"-74.5809","city":"Picatinny Arsenal"},"07851":{"lat":"41.205913","state":"NJ","long":"-74.817219","city":"Layton"},"07840":{"lat":"40.852891","state":"NJ","long":"-74.834315","city":"Hackettstown"},"07829":{"lat":"40.832222","state":"NJ","long":"-75.006667","city":"Buttzville"},"07885":{"lat":"40.913883","state":"NJ","long":"-74.58634","city":"Wharton"},"07874":{"lat":"40.921743","state":"NJ","long":"-74.70044","city":"Stanhope"},"07863":{"lat":"40.810537","state":"NJ","long":"-75.00194","city":"Oxford"},"07852":{"lat":"40.878028","state":"NJ","long":"-74.655405","city":"Ledgewood"},"07830":{"lat":"40.716209","state":"NJ","long":"-74.815218","city":"Califon"},"07875":{"lat":"41.035833","state":"NJ","long":"-74.878611","city":"Stillwater"},"07853":{"lat":"40.787817","state":"NJ","long":"-74.78698","city":"Long Valley"},"07842":{"lat":"40.943889","state":"NJ","long":"-74.493056","city":"Hibernia"},"07831":{"lat":"40.738056","state":"NJ","long":"-74.944444","city":"Changewater"},"07820":{"lat":"40.921667","state":"NJ","long":"-74.810556","city":"Allamuchy"},"07876":{"lat":"40.85385","state":"NJ","long":"-74.653601","city":"Succasunna"},"07865":{"lat":"40.790615","state":"NJ","long":"-74.91675","city":"Port Murray"},"07843":{"lat":"40.938983","state":"NJ","long":"-74.66163","city":"Hopatcong"},"07832":{"lat":"40.938805","state":"NJ","long":"-75.054983","city":"Columbia"},"07821":{"lat":"40.961386","state":"NJ","long":"-74.752418","city":"Andover"},"07877":{"lat":"41.086944","state":"NJ","long":"-74.8275","city":"Swartswood"},"07866":{"lat":"40.922916","state":"NJ","long":"-74.50937","city":"Rockaway"},"07855":{"lat":"41.055833","state":"NJ","long":"-74.863333","city":"Middleville"},"07844":{"lat":"40.911111","state":"NJ","long":"-74.967778","city":"Hope"},"07833":{"lat":"40.892778","state":"NJ","long":"-75.065","city":"Delaware"},"07822":{"lat":"41.145086","state":"NJ","long":"-74.684753","city":"Augusta"}});