ComSquarepushJsonzips.load_zips({"08102":{"lat":"39.951244","state":"NJ","long":"-75.118644","city":"Camden"},"08103":{"lat":"39.935099","state":"NJ","long":"-75.111708","city":"Camden"},"08104":{"lat":"39.918575","state":"NJ","long":"-75.107835","city":"Haddon Township"},"08105":{"lat":"39.948417","state":"NJ","long":"-75.086382","city":"Camden"},"08106":{"lat":"39.891035","state":"NJ","long":"-75.072425","city":"Audubon"},"08107":{"lat":"39.90799","state":"NJ","long":"-75.08489","city":"Haddon Township"},"08108":{"lat":"39.915682","state":"NJ","long":"-75.063383","city":"Haddon Township"},"08109":{"lat":"39.95193","state":"NJ","long":"-75.048204","city":"Merchantville"},"08110":{"lat":"39.962742","state":"NJ","long":"-75.063446","city":"Pennsauken"},"08101":{"lat":"39.925833","state":"NJ","long":"-75.12","city":"Camden"}});