ComSquarepushJsonzips.load_zips({"08553":{"lat":"40.400985","state":"NJ","long":"-74.640042","city":"Rocky Hill"},"08542":{"lat":"40.353545","state":"NJ","long":"-74.659378","city":"Princeton"},"08520":{"lat":"40.266885","state":"NJ","long":"-74.524993","city":"Hightstown"},"08554":{"lat":"40.115352","state":"NJ","long":"-74.777224","city":"Roebling"},"08543":{"lat":"40.34908","state":"NJ","long":"-74.65974","city":"Princeton"},"08510":{"lat":"40.199751","state":"NJ","long":"-74.434387","city":"Millstone Township"},"08555":{"lat":"40.22","state":"NJ","long":"-74.473611","city":"Roosevelt"},"08544":{"lat":"40.346029","state":"NJ","long":"-74.65754","city":"Princeton"},"08533":{"lat":"40.071343","state":"NJ","long":"-74.506721","city":"New Egypt"},"08511":{"lat":"40.048109","state":"NJ","long":"-74.559524","city":"Cookstown"},"08556":{"lat":"40.422005","state":"NJ","long":"-74.991928","city":"Rosemont"},"08534":{"lat":"40.333858","state":"NJ","long":"-74.794352","city":"Pennington"},"08512":{"lat":"40.303868","state":"NJ","long":"-74.506531","city":"Cranbury"},"08501":{"lat":"40.158922","state":"NJ","long":"-74.59093","city":"Allentown"},"08557":{"lat":"40.445833","state":"NJ","long":"-74.943889","city":"Sergeantsville"},"08535":{"lat":"40.214971","state":"NJ","long":"-74.440381","city":"Millstone Township"},"08502":{"lat":"40.467732","state":"NJ","long":"-74.628993","city":"Belle Mead"},"08558":{"lat":"40.417312","state":"NJ","long":"-74.693828","city":"Skillman"},"08536":{"lat":"40.332432","state":"NJ","long":"-74.568836","city":"Plainsboro"},"08525":{"lat":"40.390224","state":"NJ","long":"-74.770963","city":"Hopewell"},"08514":{"lat":"40.127907","state":"NJ","long":"-74.499425","city":"Cream Ridge"},"08559":{"lat":"40.43974","state":"NJ","long":"-74.955419","city":"Stockton"},"08526":{"lat":"40.166215","state":"NJ","long":"-74.510939","city":"Imlaystown"},"08515":{"lat":"40.158353","state":"NJ","long":"-74.666838","city":"Chesterfield"},"08504":{"lat":"40.4075","state":"NJ","long":"-74.703056","city":"Blawenburg"},"08560":{"lat":"40.307728","state":"NJ","long":"-74.865469","city":"Titusville"},"08527":{"lat":"40.120964","state":"NJ","long":"-74.301709","city":"Jackson"},"08505":{"lat":"40.143141","state":"NJ","long":"-74.703249","city":"Bordentown"},"08561":{"lat":"40.242222","state":"NJ","long":"-74.581667","city":"Windsor"},"08550":{"lat":"40.297684","state":"NJ","long":"-74.614596","city":"West Windsor"},"08528":{"lat":"40.380465","state":"NJ","long":"-74.616071","city":"Kingston"},"08562":{"lat":"40.071953","state":"NJ","long":"-74.573098","city":"Wrightstown"},"08551":{"lat":"40.44587","state":"NJ","long":"-74.828839","city":"Ringoes"},"08540":{"lat":"40.366633","state":"NJ","long":"-74.640832","city":"Princeton"},"08518":{"lat":"40.118025","state":"NJ","long":"-74.805515","city":"Florence"},"08541":{"lat":"40.34918","state":"NJ","long":"-74.65999","city":"Princeton"},"08530":{"lat":"40.373122","state":"NJ","long":"-74.926605","city":"Lambertville"}});