ComSquarepushJsonzips.load_zips({"13403":{"lat":"43.163926","state":"NY","long":"-75.278335","city":"Marcy"},"13424":{"lat":"43.152427","state":"NY","long":"-75.343437","city":"Oriskany"},"13488":{"lat":"42.503512","state":"NY","long":"-75.100378","city":"Westford"},"13404":{"lat":"43.7375","state":"NY","long":"-75.47","city":"Martinsburg"},"13425":{"lat":"42.957585","state":"NY","long":"-75.483807","city":"Oriskany Falls"},"13489":{"lat":"43.459713","state":"NY","long":"-75.512707","city":"West Leyden"},"13426":{"lat":"43.574722","state":"NY","long":"-75.996667","city":"Orwell"},"13468":{"lat":"42.850106","state":"NY","long":"-74.938051","city":"Springfield Center"},"13490":{"lat":"43.101686","state":"NY","long":"-75.453259","city":"Westmoreland"},"13406":{"lat":"43.136933","state":"NY","long":"-74.923978","city":"Middleville"},"13470":{"lat":"43.179101","state":"NY","long":"-74.676786","city":"Stratford"},"13469":{"lat":"43.222889","state":"NY","long":"-75.289854","city":"Stittville"},"13491":{"lat":"42.882566","state":"NY","long":"-75.183491","city":"West Winfield"},"13407":{"lat":"42.989986","state":"NY","long":"-74.985298","city":"Mohawk"},"13428":{"lat":"42.922119","state":"NY","long":"-74.570825","city":"Palatine Bridge"},"13450":{"lat":"42.788246","state":"NY","long":"-74.74161","city":"Roseboom"},"13449":{"lat":"43.21976","state":"NY","long":"-75.45055","city":"Rome"},"13471":{"lat":"43.336571","state":"NY","long":"-75.602706","city":"Taberg"},"13492":{"lat":"43.115805","state":"NY","long":"-75.309479","city":"Whitesboro"},"13408":{"lat":"42.910805","state":"NY","long":"-75.648656","city":"Morrisville"},"13472":{"lat":"43.7","state":"NY","long":"-75.002222","city":"Thendara"},"13493":{"lat":"43.410559","state":"NY","long":"-75.904411","city":"Williamstown"},"13494":{"lat":"43.54881","state":"NY","long":"-75.119111","city":"Woodgate"},"13410":{"lat":"42.934722","state":"NY","long":"-74.613889","city":"Nelliston"},"13409":{"lat":"42.986326","state":"NY","long":"-75.594032","city":"Munnsville"},"13431":{"lat":"43.211458","state":"NY","long":"-75.07313","city":"Poland"},"13452":{"lat":"43.016995","state":"NY","long":"-74.64604","city":"Saint Johnsville"},"13473":{"lat":"43.644074","state":"NY","long":"-75.413199","city":"Turin"},"13495":{"lat":"43.111582","state":"NY","long":"-75.275565","city":"Yorkville"},"13411":{"lat":"42.622414","state":"NY","long":"-75.347406","city":"New Berlin"},"13433":{"lat":"43.580245","state":"NY","long":"-75.326257","city":"Port Leyden"},"13454":{"lat":"43.162509","state":"NY","long":"-74.780932","city":"Salisbury Center"},"13475":{"lat":"42.894812","state":"NY","long":"-74.834662","city":"Van Hornesville"},"13455":{"lat":"42.913889","state":"NY","long":"-75.379444","city":"Sangerfield"},"13476":{"lat":"43.094509","state":"NY","long":"-75.56272","city":"Vernon"},"13413":{"lat":"43.065412","state":"NY","long":"-75.290551","city":"New Hartford"},"13456":{"lat":"43.007291","state":"NY","long":"-75.26259","city":"Sauquoit"},"13477":{"lat":"43.044309","state":"NY","long":"-75.521028","city":"Vernon Center"},"13435":{"lat":"43.304167","state":"NY","long":"-75.1525","city":"Prospect"},"13478":{"lat":"43.147311","state":"NY","long":"-75.572399","city":"Verona"},"13415":{"lat":"42.578968","state":"NY","long":"-75.327436","city":"New Lisbon"},"13436":{"lat":"43.866224","state":"NY","long":"-74.537959","city":"Raquette Lake"},"13457":{"lat":"42.780278","state":"NY","long":"-75.028333","city":"Schuyler Lake"},"13416":{"lat":"43.180002","state":"NY","long":"-74.986133","city":"Newport"},"13437":{"lat":"43.565794","state":"NY","long":"-75.82423","city":"Redfield"},"13480":{"lat":"42.933244","state":"NY","long":"-75.381466","city":"Waterville"},"13479":{"lat":"43.05","state":"NY","long":"-75.273333","city":"Washington Mills"},"13417":{"lat":"43.100038","state":"NY","long":"-75.29369","city":"New York Mills"},"13438":{"lat":"43.338456","state":"NY","long":"-75.161618","city":"Remsen"},"13460":{"lat":"42.685885","state":"NY","long":"-75.483027","city":"Sherburne"},"13459":{"lat":"42.763357","state":"NY","long":"-74.591911","city":"Sharon Springs"},"13418":{"lat":"42.850088","state":"NY","long":"-75.381489","city":"North Brookfield"},"13440":{"lat":"43.219349","state":"NY","long":"-75.449758","city":"Rome"},"13439":{"lat":"42.850298","state":"NY","long":"-74.992214","city":"Richfield Springs"},"13461":{"lat":"43.070397","state":"NY","long":"-75.598975","city":"Sherrill"},"13482":{"lat":"42.706229","state":"NY","long":"-75.190603","city":"West Burlington"},"13420":{"lat":"43.74347","state":"NY","long":"-74.893511","city":"Old Forge"},"13441":{"lat":"43.219","state":"NY","long":"-75.4108","city":"Rome"},"13483":{"lat":"43.411671","state":"NY","long":"-75.822587","city":"Westdale"},"13421":{"lat":"43.086248","state":"NY","long":"-75.650814","city":"Oneida"},"13442":{"lat":"43.21984","state":"NY","long":"-75.45049","city":"Rome"},"13484":{"lat":"42.854444","state":"NY","long":"-75.656389","city":"West Eaton"},"13401":{"lat":"43.289552","state":"NY","long":"-75.652477","city":"Mc Connellsville"},"13464":{"lat":"42.689565","state":"NY","long":"-75.612124","city":"Smyrna"},"13485":{"lat":"42.794543","state":"NY","long":"-75.303723","city":"West Edmeston"},"13465":{"lat":"42.910556","state":"NY","long":"-75.518056","city":"Solsville"},"13486":{"lat":"43.329413","state":"NY","long":"-75.315118","city":"Westernville"},"13402":{"lat":"42.896854","state":"NY","long":"-75.507562","city":"Madison"}});