ComSquarepushJsonzips.load_zips({"16370":{"lat":"41.568611","state":"PA","long":"-79.408333","city":"West Hickory"},"16326":{"lat":"41.371736","state":"PA","long":"-79.413401","city":"Fryburg"},"16371":{"lat":"41.853654","state":"PA","long":"-79.318708","city":"Youngsville"},"16360":{"lat":"41.685581","state":"PA","long":"-79.876679","city":"Townville"},"16327":{"lat":"41.633265","state":"PA","long":"-79.971437","city":"Guys Mills"},"16316":{"lat":"41.6189","state":"PA","long":"-80.308567","city":"Conneaut Lake"},"16372":{"lat":"41.20022","state":"PA","long":"-79.87338","city":"Clintonville"},"16361":{"lat":"41.384722","state":"PA","long":"-79.3225","city":"Tylersburg"},"16350":{"lat":"41.947542","state":"PA","long":"-79.318609","city":"Sugar Grove"},"16328":{"lat":"41.6525","state":"PA","long":"-79.727222","city":"Hydetown"},"16317":{"lat":"41.497998","state":"PA","long":"-79.875676","city":"Cooperstown"},"16373":{"lat":"41.202769","state":"PA","long":"-79.746996","city":"Emlenton"},"16362":{"lat":"41.479848","state":"PA","long":"-79.940292","city":"Utica"},"16351":{"lat":"41.703008","state":"PA","long":"-79.375224","city":"Tidioute"},"16340":{"lat":"41.836629","state":"PA","long":"-79.419619","city":"Pittsfield"},"16329":{"lat":"41.843283","state":"PA","long":"-79.286303","city":"Irvine"},"16374":{"lat":"41.284762","state":"PA","long":"-79.739313","city":"Kennerdell"},"16352":{"lat":"41.746944","state":"PA","long":"-79.0675","city":"Tiona"},"16341":{"lat":"41.586696","state":"PA","long":"-79.5685","city":"Pleasantville"},"16319":{"lat":"41.337184","state":"PA","long":"-79.719121","city":"Cranberry"},"16375":{"lat":"41.2225","state":"PA","long":"-79.634167","city":"Lamartine"},"16364":{"lat":"41.376113","state":"PA","long":"-79.504765","city":"Venus"},"16353":{"lat":"41.511616","state":"PA","long":"-79.366332","city":"Tionesta"},"16342":{"lat":"41.358315","state":"PA","long":"-79.93461","city":"Polk"},"16331":{"lat":"41.290215","state":"PA","long":"-79.588249","city":"Kossuth"},"16365":{"lat":"41.845265","state":"PA","long":"-79.14286","city":"Warren"},"16354":{"lat":"41.638163","state":"PA","long":"-79.685494","city":"Titusville"},"16343":{"lat":"41.409722","state":"PA","long":"-79.7525","city":"Reno"},"16332":{"lat":"41.3789","state":"PA","long":"-79.371516","city":"Lickingville"},"16321":{"lat":"41.5691","state":"PA","long":"-79.385483","city":"East Hickory"},"16388":{"lat":"41.641389","state":"PA","long":"-80.151667","city":"Meadville"},"16366":{"lat":"41.846506","state":"PA","long":"-79.147616","city":"Warren"},"16344":{"lat":"41.468889","state":"PA","long":"-79.691111","city":"Rouseville"},"16333":{"lat":"41.728409","state":"PA","long":"-78.924345","city":"Ludlow"},"16322":{"lat":"41.589444","state":"PA","long":"-79.385278","city":"Endeavor"},"16311":{"lat":"41.481541","state":"PA","long":"-80.020302","city":"Carlton"},"16367":{"lat":"41.8467","state":"PA","long":"-79.1463","city":"Warren"},"16345":{"lat":"41.946106","state":"PA","long":"-79.127079","city":"Russell"},"16334":{"lat":"41.326077","state":"PA","long":"-79.445929","city":"Marble"},"16323":{"lat":"41.404775","state":"PA","long":"-79.83089","city":"Franklin"},"16312":{"lat":"41.934167","state":"PA","long":"-79.303889","city":"Chandlers Valley"},"16301":{"lat":"41.431936","state":"PA","long":"-79.691648","city":"Oil City"},"16368":{"lat":"41.843889","state":"PA","long":"-79.145278","city":"Warren"},"16346":{"lat":"41.374436","state":"PA","long":"-79.675902","city":"Seneca"},"16335":{"lat":"41.633847","state":"PA","long":"-80.148787","city":"Meadville"},"16313":{"lat":"41.730224","state":"PA","long":"-79.171949","city":"Clarendon"},"16369":{"lat":"41.845389","state":"PA","long":"-79.149467","city":"Warren"},"16347":{"lat":"41.70053","state":"PA","long":"-79.034814","city":"Sheffield"},"16314":{"lat":"41.520487","state":"PA","long":"-80.057269","city":"Cochranton"}});