ComSquarepushJsonzips.load_zips({"17074":{"lat":"40.482662","state":"PA","long":"-77.165866","city":"Newport"},"17011":{"lat":"40.238071","state":"PA","long":"-76.929111","city":"Camp Hill"},"17032":{"lat":"40.47603","state":"PA","long":"-76.89404","city":"Halifax"},"17053":{"lat":"40.335062","state":"PA","long":"-76.972204","city":"Marysville"},"17075":{"lat":"40.391667","state":"PA","long":"-77.837222","city":"Newton Hamilton"},"17033":{"lat":"40.263767","state":"PA","long":"-76.654518","city":"Hershey"},"17054":{"lat":"40.496111","state":"PA","long":"-77.729722","city":"Mattawana"},"17012":{"lat":"40.24023","state":"PA","long":"-76.9206","city":"Camp Hill"},"17097":{"lat":"40.567511","state":"PA","long":"-76.709084","city":"Wiconisco"},"17076":{"lat":"40.614748","state":"PA","long":"-77.319244","city":"Oakland Mills"},"17055":{"lat":"40.212669","state":"PA","long":"-76.99493","city":"Mechanicsburg"},"17013":{"lat":"40.203877","state":"PA","long":"-77.199526","city":"Carlisle"},"17034":{"lat":"40.208348","state":"PA","long":"-76.785303","city":"Highspire"},"17098":{"lat":"40.580761","state":"PA","long":"-76.622259","city":"Williamstown"},"17077":{"lat":"40.402778","state":"PA","long":"-76.535","city":"Ono"},"17014":{"lat":"40.656706","state":"PA","long":"-77.106749","city":"Cocolamus"},"17035":{"lat":"40.430903","state":"PA","long":"-77.57607","city":"Honey Grove"},"17056":{"lat":"40.5375","state":"PA","long":"-77.353611","city":"Mexico"},"17099":{"lat":"40.643558","state":"PA","long":"-77.568823","city":"Yeagertown"},"17078":{"lat":"40.301055","state":"PA","long":"-76.58861","city":"Palmyra"},"17015":{"lat":"40.185099","state":"PA","long":"-77.217413","city":"Carlisle"},"17036":{"lat":"40.278199","state":"PA","long":"-76.709375","city":"Hummelstown"},"17057":{"lat":"40.204086","state":"PA","long":"-76.733127","city":"Middletown"},"17080":{"lat":"40.640833","state":"PA","long":"-76.802778","city":"Pillow"},"17016":{"lat":"40.273611","state":"PA","long":"-76.406389","city":"Cornwall"},"17037":{"lat":"40.434154","state":"PA","long":"-77.34291","city":"Ickesburg"},"17058":{"lat":"40.570842","state":"PA","long":"-77.41314","city":"Mifflin"},"17081":{"lat":"40.203056","state":"PA","long":"-77.290278","city":"Plainfield"},"17017":{"lat":"40.648315","state":"PA","long":"-76.879713","city":"Dalmatia"},"17038":{"lat":"40.43607","state":"PA","long":"-76.503842","city":"Jonestown"},"17060":{"lat":"40.447102","state":"PA","long":"-77.917689","city":"Mill Creek"},"17059":{"lat":"40.572666","state":"PA","long":"-77.376119","city":"Mifflintown"},"17082":{"lat":"40.51068","state":"PA","long":"-77.430958","city":"Port Royal"},"17018":{"lat":"40.384581","state":"PA","long":"-76.928304","city":"Dauphin"},"17040":{"lat":"40.332644","state":"PA","long":"-77.319146","city":"Landisburg"},"17039":{"lat":"40.300833","state":"PA","long":"-76.249444","city":"Kleinfeltersville"},"17061":{"lat":"40.558743","state":"PA","long":"-76.930483","city":"Millersburg"},"17083":{"lat":"40.279444","state":"PA","long":"-76.438611","city":"Quentin"},"17020":{"lat":"40.408678","state":"PA","long":"-77.047254","city":"Duncannon"},"17019":{"lat":"40.096373","state":"PA","long":"-77.03387","city":"Dillsburg"},"17041":{"lat":"40.22","state":"PA","long":"-76.539444","city":"Lawn"},"17062":{"lat":"40.550548","state":"PA","long":"-77.129776","city":"Millerstown"},"17084":{"lat":"40.672189","state":"PA","long":"-77.611589","city":"Reedsville"},"17021":{"lat":"40.354191","state":"PA","long":"-77.652789","city":"East Waterford"},"17042":{"lat":"40.335912","state":"PA","long":"-76.425895","city":"Lebanon"},"17063":{"lat":"40.72033","state":"PA","long":"-77.556739","city":"Milroy"},"17085":{"lat":"40.277222","state":"PA","long":"-76.382778","city":"Rexmont"},"17022":{"lat":"40.155331","state":"PA","long":"-76.602545","city":"Elizabethtown"},"17043":{"lat":"40.247158","state":"PA","long":"-76.89757","city":"Lemoyne"},"17064":{"lat":"40.2475","state":"PA","long":"-76.469722","city":"Mount Gretna"},"17001":{"lat":"40.24004","state":"PA","long":"-76.92076","city":"Camp Hill"},"17086":{"lat":"40.688424","state":"PA","long":"-77.122296","city":"Richfield"},"17044":{"lat":"40.599439","state":"PA","long":"-77.57558","city":"Lewistown"},"17065":{"lat":"40.118356","state":"PA","long":"-77.190807","city":"Mount Holly Springs"},"17002":{"lat":"40.524921","state":"PA","long":"-77.829396","city":"Allensville"},"17023":{"lat":"40.55497","state":"PA","long":"-76.835484","city":"Elizabethville"},"17087":{"lat":"40.380595","state":"PA","long":"-76.265447","city":"Richland"},"17066":{"lat":"40.390106","state":"PA","long":"-77.863704","city":"Mount Union"},"17003":{"lat":"40.345608","state":"PA","long":"-76.544676","city":"Annville"},"17024":{"lat":"40.362428","state":"PA","long":"-77.270348","city":"Elliottsburg"},"17045":{"lat":"40.575272","state":"PA","long":"-77.008327","city":"Liverpool"},"17088":{"lat":"40.298333","state":"PA","long":"-76.294722","city":"Schaefferstown"},"17004":{"lat":"40.601571","state":"PA","long":"-77.735823","city":"Belleville"},"17025":{"lat":"40.292178","state":"PA","long":"-76.943208","city":"Enola"},"17046":{"lat":"40.3602","state":"PA","long":"-76.4261","city":"Lebanon"},"17067":{"lat":"40.378949","state":"PA","long":"-76.314328","city":"Myerstown"},"17090":{"lat":"40.329898","state":"PA","long":"-77.180856","city":"Shermans Dale"},"17089":{"lat":"40.286731","state":"PA","long":"-76.94284","city":"Camp Hill"},"17068":{"lat":"40.419325","state":"PA","long":"-77.193836","city":"New Bloomfield"},"17005":{"lat":"40.60199","state":"PA","long":"-76.811207","city":"Berrysburg"},"17026":{"lat":"40.452392","state":"PA","long":"-76.42674","city":"Fredericksburg"},"17047":{"lat":"40.36576","state":"PA","long":"-77.413823","city":"Loysville"},"17091":{"lat":"40.2397","state":"PA","long":"-76.9205","city":"Lebanon"},"17070":{"lat":"40.215105","state":"PA","long":"-76.868909","city":"New Cumberland"},"17069":{"lat":"40.454167","state":"PA","long":"-76.97","city":"New Buffalo"},"17006":{"lat":"40.329314","state":"PA","long":"-77.511736","city":"Blain"},"17027":{"lat":"40.156389","state":"PA","long":"-76.989167","city":"Grantham"},"17048":{"lat":"40.590919","state":"PA","long":"-76.70736","city":"Lykens"},"17071":{"lat":"40.305749","state":"PA","long":"-77.579701","city":"New Germantown"},"17007":{"lat":"40.144873","state":"PA","long":"-77.119489","city":"Boiling Springs"},"17028":{"lat":"40.360629","state":"PA","long":"-76.671331","city":"Grantville"},"17050":{"lat":"40.214167","state":"PA","long":"-77.008889","city":"Mechanicsburg"},"17049":{"lat":"40.646916","state":"PA","long":"-77.2602","city":"Mc Alisterville"},"17093":{"lat":"40.308889","state":"PA","long":"-76.927778","city":"Summerdale"},"17072":{"lat":"40.233056","state":"PA","long":"-77.08","city":"New Kingstown"},"17008":{"lat":"40.166111","state":"PA","long":"-76.978333","city":"Bowmansdale"},"17030":{"lat":"40.610424","state":"PA","long":"-76.718851","city":"Gratz"},"17029":{"lat":"40.547868","state":"PA","long":"-77.613358","city":"Granville"},"17051":{"lat":"40.504593","state":"PA","long":"-77.718625","city":"Mc Veytown"},"17094":{"lat":"40.590782","state":"PA","long":"-77.207551","city":"Thompsontown"},"17073":{"lat":"40.317938","state":"PA","long":"-76.2426","city":"Newmanstown"},"17010":{"lat":"40.2775","state":"PA","long":"-76.585556","city":"Campbelltown"},"17009":{"lat":"40.636119","state":"PA","long":"-77.562459","city":"Burnham"},"17052":{"lat":"40.386414","state":"PA","long":"-77.960444","city":"Mapleton Depot"}});