ComSquarepushJsonzips.load_zips({"18473":{"lat":"41.526111","state":"PA","long":"-75.203889","city":"White Mills"},"18462":{"lat":"41.890739","state":"PA","long":"-75.449001","city":"Starrucca"},"18451":{"lat":"41.381197","state":"PA","long":"-75.23032","city":"Paupack"},"18440":{"lat":"41.556667","state":"PA","long":"-75.754167","city":"La Plume"},"18407":{"lat":"41.583481","state":"PA","long":"-75.507363","city":"Carbondale"},"18463":{"lat":"41.341912","state":"PA","long":"-75.394467","city":"Sterling"},"18452":{"lat":"41.482124","state":"PA","long":"-75.589884","city":"Peckville"},"18441":{"lat":"41.667713","state":"PA","long":"-75.631934","city":"Lenoxville"},"18430":{"lat":"41.76434","state":"PA","long":"-75.504387","city":"Herrick Center"},"18419":{"lat":"41.576168","state":"PA","long":"-75.765182","city":"Factoryville"},"18464":{"lat":"41.369445","state":"PA","long":"-75.101598","city":"Tafton"},"18453":{"lat":"41.732204","state":"PA","long":"-75.398944","city":"Pleasant Mount"},"18431":{"lat":"41.579227","state":"PA","long":"-75.25279","city":"Honesdale"},"18420":{"lat":"41.598056","state":"PA","long":"-75.715","city":"Fleetville"},"18465":{"lat":"41.83395","state":"PA","long":"-75.534215","city":"Thompson"},"18454":{"lat":"41.820556","state":"PA","long":"-75.420278","city":"Poyntelle"},"18443":{"lat":"41.649208","state":"PA","long":"-75.08818","city":"Milanville"},"18421":{"lat":"41.654587","state":"PA","long":"-75.48725","city":"Forest City"},"18410":{"lat":"41.475","state":"PA","long":"-75.6775","city":"Chinchilla"},"18466":{"lat":"41.183638","state":"PA","long":"-75.391781","city":"Tobyhanna"},"18455":{"lat":"41.867264","state":"PA","long":"-75.383147","city":"Preston Park"},"18444":{"lat":"41.343194","state":"PA","long":"-75.530137","city":"Moscow"},"18433":{"lat":"41.532723","state":"PA","long":"-75.542948","city":"Jermyn"},"18411":{"lat":"41.487795","state":"PA","long":"-75.705713","city":"Clarks Summit"},"18456":{"lat":"41.582031","state":"PA","long":"-75.320749","city":"Prompton"},"18445":{"lat":"41.304125","state":"PA","long":"-75.338405","city":"Newfoundland"},"18434":{"lat":"41.472443","state":"PA","long":"-75.568891","city":"Jessup"},"18457":{"lat":"41.471111","state":"PA","long":"-75.0425","city":"Rowland"},"18446":{"lat":"41.641198","state":"PA","long":"-75.764073","city":"Nicholson"},"18435":{"lat":"41.504272","state":"PA","long":"-75.074859","city":"Lackawaxen"},"18424":{"lat":"41.2448","state":"PA","long":"-75.503653","city":"Gouldsboro"},"18413":{"lat":"41.648889","state":"PA","long":"-75.599167","city":"Clifford"},"18469":{"lat":"41.670873","state":"PA","long":"-75.154246","city":"Tyler Hill"},"18458":{"lat":"41.418193","state":"PA","long":"-74.917962","city":"Shohola"},"18447":{"lat":"41.467709","state":"PA","long":"-75.601502","city":"Olyphant"},"18436":{"lat":"41.439476","state":"PA","long":"-75.431257","city":"Lake Ariel"},"18425":{"lat":"41.437238","state":"PA","long":"-75.012491","city":"Greeley"},"18414":{"lat":"41.539496","state":"PA","long":"-75.703737","city":"Dalton"},"18403":{"lat":"41.495633","state":"PA","long":"-75.555232","city":"Archbald"},"18470":{"lat":"41.707941","state":"PA","long":"-75.546476","city":"Union Dale"},"18459":{"lat":"41.505278","state":"PA","long":"-75.4125","city":"South Canaan"},"18448":{"lat":"41.455","state":"PA","long":"-75.583611","city":"Olyphant"},"18437":{"lat":"41.866553","state":"PA","long":"-75.32308","city":"Lake Como"},"18426":{"lat":"41.332145","state":"PA","long":"-75.281911","city":"Greentown"},"18415":{"lat":"41.736623","state":"PA","long":"-75.131151","city":"Damascus"},"18471":{"lat":"41.526389","state":"PA","long":"-75.705833","city":"Waverly"},"18460":{"lat":"41.271222","state":"PA","long":"-75.381443","city":"South Sterling"},"18449":{"lat":"41.813611","state":"PA","long":"-75.448333","city":"Orson"},"18438":{"lat":"41.422278","state":"PA","long":"-75.260717","city":"Lakeville"},"18427":{"lat":"41.401477","state":"PA","long":"-75.354232","city":"Hamlin"},"18416":{"lat":"41.377778","state":"PA","long":"-75.545","city":"Elmhurst"},"18405":{"lat":"41.603403","state":"PA","long":"-75.11649","city":"Beach Lake"},"18472":{"lat":"41.570276","state":"PA","long":"-75.406478","city":"Waymart"},"18461":{"lat":"41.925087","state":"PA","long":"-75.321238","city":"Starlight"},"18439":{"lat":"41.817138","state":"PA","long":"-75.383824","city":"Lakewood"},"18428":{"lat":"41.478685","state":"PA","long":"-75.197822","city":"Hawley"},"18417":{"lat":"41.811712","state":"PA","long":"-75.189081","city":"Equinunk"}});