ComSquarepushJsonzips.load_zips({"19099":{"lat":"39.952432","state":"PA","long":"-75.164627","city":"Philadelphia"},"19015":{"lat":"39.865355","state":"PA","long":"-75.388483","city":"Brookhaven"},"19036":{"lat":"39.904848","state":"PA","long":"-75.294559","city":"Glenolden"},"19057":{"lat":"40.143359","state":"PA","long":"-74.861366","city":"Levittown"},"19078":{"lat":"39.878411","state":"PA","long":"-75.321517","city":"Ridley Park"},"19080":{"lat":"40.0435","state":"PA","long":"-75.388","city":"Wayne"},"19016":{"lat":"39.849444","state":"PA","long":"-75.356111","city":"Chester"},"19037":{"lat":"39.917222","state":"PA","long":"-75.440833","city":"Glen Riddle Lima"},"19058":{"lat":"40.155","state":"PA","long":"-74.829167","city":"Levittown"},"19079":{"lat":"39.903511","state":"PA","long":"-75.269524","city":"Sharon Hill"},"19081":{"lat":"39.896724","state":"PA","long":"-75.347428","city":"Swarthmore"},"19017":{"lat":"39.89","state":"PA","long":"-75.475833","city":"Chester Heights"},"19038":{"lat":"40.10959","state":"PA","long":"-75.154964","city":"Glenside"},"19082":{"lat":"39.95785","state":"PA","long":"-75.268128","city":"Upper Darby"},"19018":{"lat":"39.923579","state":"PA","long":"-75.299592","city":"Clifton Heights"},"19040":{"lat":"40.178547","state":"PA","long":"-75.107182","city":"Hatboro"},"19039":{"lat":"39.943056","state":"PA","long":"-75.469722","city":"Gradyville"},"19061":{"lat":"39.833934","state":"PA","long":"-75.448309","city":"Marcus Hook"},"19083":{"lat":"39.97736","state":"PA","long":"-75.310613","city":"Havertown"},"19020":{"lat":"40.110881","state":"PA","long":"-74.937753","city":"Bensalem"},"19019":{"lat":"40.1162","state":"PA","long":"-75.0141","city":"Philadelphia"},"19041":{"lat":"40.009739","state":"PA","long":"-75.312116","city":"Haverford"},"19021":{"lat":"40.093322","state":"PA","long":"-74.899077","city":"Croydon"},"19063":{"lat":"39.915562","state":"PA","long":"-75.407226","city":"Media"},"19085":{"lat":"40.039875","state":"PA","long":"-75.345866","city":"Villanova"},"19022":{"lat":"39.868457","state":"PA","long":"-75.337397","city":"Crum Lynne"},"19043":{"lat":"39.900284","state":"PA","long":"-75.308674","city":"Holmes"},"19064":{"lat":"39.929599","state":"PA","long":"-75.333786","city":"Springfield"},"19001":{"lat":"40.128141","state":"PA","long":"-75.128918","city":"Abington"},"19086":{"lat":"39.887054","state":"PA","long":"-75.372131","city":"Wallingford"},"19044":{"lat":"40.182057","state":"PA","long":"-75.147932","city":"Horsham"},"19065":{"lat":"39.905556","state":"PA","long":"-75.388333","city":"Media"},"19002":{"lat":"40.166318","state":"PA","long":"-75.207234","city":"Ambler"},"19023":{"lat":"39.916732","state":"PA","long":"-75.266226","city":"Darby"},"19087":{"lat":"40.059554","state":"PA","long":"-75.40416","city":"Wayne"},"19066":{"lat":"40.003043","state":"PA","long":"-75.250302","city":"Merion Station"},"19003":{"lat":"40.001971","state":"PA","long":"-75.29665","city":"Ardmore"},"19090":{"lat":"40.146725","state":"PA","long":"-75.121297","city":"Willow Grove"},"19088":{"lat":"40.0438","state":"PA","long":"-75.388","city":"Wayne"},"19004":{"lat":"40.01179","state":"PA","long":"-75.23421","city":"Bala Cynwyd"},"19025":{"lat":"40.143141","state":"PA","long":"-75.162379","city":"Dresher"},"19046":{"lat":"40.100477","state":"PA","long":"-75.117273","city":"Jenkintown"},"19067":{"lat":"40.212064","state":"PA","long":"-74.822153","city":"Morrisville"},"19089":{"lat":"40.042937","state":"PA","long":"-75.357888","city":"Wayne"},"19026":{"lat":"39.949197","state":"PA","long":"-75.303479","city":"Drexel Hill"},"19047":{"lat":"40.175055","state":"PA","long":"-74.915101","city":"Langhorne"},"19091":{"lat":"39.916667","state":"PA","long":"-75.388056","city":"Media"},"19006":{"lat":"40.129686","state":"PA","long":"-75.058979","city":"Huntingdon Valley"},"19027":{"lat":"40.073056","state":"PA","long":"-75.125","city":"Elkins Park"},"19048":{"lat":"40.136265","state":"PA","long":"-75.191297","city":"Fort Washington"},"19070":{"lat":"39.906292","state":"PA","long":"-75.323785","city":"Morton"},"19092":{"lat":"39.95432","state":"PA","long":"-75.18367","city":"Philadelphia"},"19007":{"lat":"40.109174","state":"PA","long":"-74.860718","city":"Bristol"},"19028":{"lat":"39.974722","state":"PA","long":"-75.450833","city":"Edgemont"},"19050":{"lat":"39.93779","state":"PA","long":"-75.264872","city":"Lansdowne"},"19049":{"lat":"40.1744","state":"PA","long":"-74.923","city":"Fort Washington"},"19093":{"lat":"39.95432","state":"PA","long":"-75.18364","city":"Philadelphia"},"19008":{"lat":"39.974666","state":"PA","long":"-75.360214","city":"Broomall"},"19030":{"lat":"40.174822","state":"PA","long":"-74.851923","city":"Fairless Hills"},"19029":{"lat":"39.866864","state":"PA","long":"-75.293521","city":"Essington"},"19072":{"lat":"40.01768","state":"PA","long":"-75.2594","city":"Narberth"},"19094":{"lat":"39.875993","state":"PA","long":"-75.346309","city":"Woodlyn"},"19010":{"lat":"40.023618","state":"PA","long":"-75.329487","city":"Bryn Mawr"},"19009":{"lat":"40.131389","state":"PA","long":"-75.067778","city":"Bryn Athyn"},"19031":{"lat":"40.106774","state":"PA","long":"-75.21148","city":"Flourtown"},"19052":{"lat":"39.893889","state":"PA","long":"-75.448056","city":"Lenni"},"19073":{"lat":"39.986292","state":"PA","long":"-75.406997","city":"Newtown Square"},"19095":{"lat":"40.086673","state":"PA","long":"-75.152417","city":"Wyncote"},"19032":{"lat":"39.890508","state":"PA","long":"-75.282117","city":"Folcroft"},"19053":{"lat":"40.151188","state":"PA","long":"-74.983758","city":"Feasterville Trevose"},"19074":{"lat":"39.887026","state":"PA","long":"-75.297247","city":"Norwood"},"19096":{"lat":"40","state":"PA","long":"-75.275984","city":"Wynnewood"},"19033":{"lat":"39.890129","state":"PA","long":"-75.329567","city":"Folsom"},"19054":{"lat":"40.168142","state":"PA","long":"-74.823138","city":"Levittown"},"19075":{"lat":"40.113197","state":"PA","long":"-75.18685","city":"Oreland"},"19012":{"lat":"40.060327","state":"PA","long":"-75.104774","city":"Cheltenham"},"19055":{"lat":"40.148329","state":"PA","long":"-74.83714","city":"Levittown"},"19076":{"lat":"39.885737","state":"PA","long":"-75.308165","city":"Prospect Park"},"19013":{"lat":"39.849817","state":"PA","long":"-75.374687","city":"Chester"},"19034":{"lat":"40.138592","state":"PA","long":"-75.202175","city":"Fort Washington"},"19098":{"lat":"39.904167","state":"PA","long":"-75.308889","city":"Holmes"},"19014":{"lat":"39.864282","state":"PA","long":"-75.43321","city":"Aston"},"19035":{"lat":"40.045118","state":"PA","long":"-75.282082","city":"Gladwyne"},"19056":{"lat":"40.151861","state":"PA","long":"-74.882632","city":"Levittown"}});