ComSquarepushJsonzips.load_zips({"19397":{"lat":"40.0631","state":"PA","long":"-75.4047","city":"Southeastern"},"19375":{"lat":"39.895278","state":"PA","long":"-75.734722","city":"Unionville"},"19353":{"lat":"40.028889","state":"PA","long":"-75.621111","city":"Lionville"},"19342":{"lat":"39.901515","state":"PA","long":"-75.504872","city":"Glen Mills"},"19331":{"lat":"39.886187","state":"PA","long":"-75.523391","city":"Concordville"},"19320":{"lat":"39.984313","state":"PA","long":"-75.825299","city":"Coatesville"},"19398":{"lat":"40.0407","state":"PA","long":"-75.4231","city":"Southeastern"},"19376":{"lat":"40.010556","state":"PA","long":"-75.843056","city":"Wagontown"},"19365":{"lat":"39.965388","state":"PA","long":"-75.926041","city":"Parkesburg"},"19354":{"lat":"40.059444","state":"PA","long":"-75.745","city":"Lyndell"},"19343":{"lat":"40.084602","state":"PA","long":"-75.771103","city":"Glenmoore"},"19310":{"lat":"39.945782","state":"PA","long":"-75.970343","city":"Atglen"},"19399":{"lat":"40.0704","state":"PA","long":"-75.4251","city":"Southeastern"},"19366":{"lat":"39.900278","state":"PA","long":"-75.626111","city":"Pocopson"},"19355":{"lat":"40.037123","state":"PA","long":"-75.533021","city":"Malvern"},"19344":{"lat":"40.083227","state":"PA","long":"-75.88432","city":"Honey Brook"},"19333":{"lat":"40.045181","state":"PA","long":"-75.422691","city":"Devon"},"19311":{"lat":"39.821904","state":"PA","long":"-75.768694","city":"Avondale"},"19367":{"lat":"39.964167","state":"PA","long":"-75.886944","city":"Pomeroy"},"19345":{"lat":"40.043889","state":"PA","long":"-75.526944","city":"Immaculata"},"19312":{"lat":"40.041184","state":"PA","long":"-75.447457","city":"Berwyn"},"19301":{"lat":"40.04259","state":"PA","long":"-75.482702","city":"Paoli"},"19390":{"lat":"39.825314","state":"PA","long":"-75.837374","city":"West Grove"},"19357":{"lat":"39.853889","state":"PA","long":"-75.641667","city":"Mendenhall"},"19346":{"lat":"39.795501","state":"PA","long":"-75.875827","city":"Kelton"},"19335":{"lat":"40.016078","state":"PA","long":"-75.718261","city":"Downingtown"},"19380":{"lat":"39.984458","state":"PA","long":"-75.596231","city":"West Chester"},"19369":{"lat":"39.981667","state":"PA","long":"-75.891667","city":"Sadsburyville"},"19358":{"lat":"39.966667","state":"PA","long":"-75.8","city":"Modena"},"19347":{"lat":"39.748889","state":"PA","long":"-75.824444","city":"Kemblesville"},"19381":{"lat":"39.9611","state":"PA","long":"-75.6044","city":"West Chester"},"19348":{"lat":"39.855033","state":"PA","long":"-75.70002","city":"Kennett Square"},"19382":{"lat":"39.944081","state":"PA","long":"-75.588197","city":"West Chester"},"19371":{"lat":"40.099444","state":"PA","long":"-75.879444","city":"Suplee"},"19360":{"lat":"39.7825","state":"PA","long":"-75.875833","city":"New London"},"19316":{"lat":"40.053611","state":"PA","long":"-75.820278","city":"Brandamore"},"19383":{"lat":"39.9389","state":"PA","long":"-75.6062","city":"West Chester"},"19372":{"lat":"40.000127","state":"PA","long":"-75.762859","city":"Thorndale"},"19350":{"lat":"39.769558","state":"PA","long":"-75.780707","city":"Landenberg"},"19339":{"lat":"39.88531","state":"PA","long":"-75.52086","city":"Concordville"},"19317":{"lat":"39.864769","state":"PA","long":"-75.588515","city":"Chadds Ford"},"19395":{"lat":"39.930833","state":"PA","long":"-75.552222","city":"Westtown"},"19373":{"lat":"39.904127","state":"PA","long":"-75.531344","city":"Thornton"},"19362":{"lat":"39.74411","state":"PA","long":"-76.035551","city":"Nottingham"},"19351":{"lat":"39.7225","state":"PA","long":"-75.875278","city":"Lewisville"},"19340":{"lat":"39.88534","state":"PA","long":"-75.52054","city":"Concordville"},"19318":{"lat":"39.853333","state":"PA","long":"-75.821944","city":"Chatham"},"19374":{"lat":"39.825117","state":"PA","long":"-75.782533","city":"Toughkenamon"},"19363":{"lat":"39.782704","state":"PA","long":"-75.981522","city":"Oxford"},"19352":{"lat":"39.780905","state":"PA","long":"-75.881784","city":"Lincoln University"},"19341":{"lat":"40.046817","state":"PA","long":"-75.643196","city":"Exton"},"19330":{"lat":"39.875686","state":"PA","long":"-75.921381","city":"Cochranville"},"19319":{"lat":"39.917496","state":"PA","long":"-75.548738","city":"Cheyney"}});