ComSquarepushJsonzips.load_zips({"24290":{"lat":"36.620213","state":"VA","long":"-82.545227","city":"Weber City"},"24279":{"lat":"37.092734","state":"VA","long":"-82.601555","city":"Pound"},"24246":{"lat":"36.866667","state":"VA","long":"-82.7425","city":"East Stone Gap"},"24224":{"lat":"36.876409","state":"VA","long":"-82.287574","city":"Castlewood"},"24202":{"lat":"36.6445","state":"VA","long":"-82.1597","city":"Bristol"},"24280":{"lat":"36.973981","state":"VA","long":"-81.888793","city":"Rosedale"},"24269":{"lat":"37.081412","state":"VA","long":"-82.380553","city":"Mc Clure"},"24258":{"lat":"36.649778","state":"VA","long":"-82.429929","city":"Hiltons"},"24236":{"lat":"36.640264","state":"VA","long":"-81.777633","city":"Damascus"},"24225":{"lat":"36.950215","state":"VA","long":"-82.131758","city":"Cleveland"},"24203":{"lat":"36.59365","state":"VA","long":"-82.183377","city":"Bristol"},"24292":{"lat":"36.610559","state":"VA","long":"-81.583938","city":"Whitetop"},"24281":{"lat":"36.658257","state":"VA","long":"-83.348565","city":"Rose Hill"},"24270":{"lat":"36.722302","state":"VA","long":"-82.264888","city":"Mendota"},"24248":{"lat":"36.623694","state":"VA","long":"-83.504737","city":"Ewing"},"24237":{"lat":"37.005419","state":"VA","long":"-82.281519","city":"Dante"},"24226":{"lat":"37.140581","state":"VA","long":"-82.342476","city":"Clinchco"},"24215":{"lat":"36.923611","state":"VA","long":"-82.796667","city":"Andover"},"24293":{"lat":"36.975","state":"VA","long":"-82.594679","city":"Wise"},"24282":{"lat":"36.831515","state":"VA","long":"-83.051838","city":"Saint Charles"},"24271":{"lat":"36.750221","state":"VA","long":"-82.420172","city":"Nickelsville"},"24260":{"lat":"37.027292","state":"VA","long":"-81.996883","city":"Honaker"},"24216":{"lat":"36.906001","state":"VA","long":"-82.791394","city":"Appalachia"},"24283":{"lat":"36.932295","state":"VA","long":"-82.341844","city":"Saint Paul"},"24272":{"lat":"37.018229","state":"VA","long":"-82.350023","city":"Nora"},"24250":{"lat":"36.743828","state":"VA","long":"-82.610178","city":"Fort Blackmore"},"24239":{"lat":"37.068044","state":"VA","long":"-82.122946","city":"Davenport"},"24228":{"lat":"37.159206","state":"VA","long":"-82.445339","city":"Clintwood"},"24217":{"lat":"37.101358","state":"VA","long":"-82.185632","city":"Bee"},"24273":{"lat":"36.937797","state":"VA","long":"-82.624923","city":"Norton"},"24251":{"lat":"36.646026","state":"VA","long":"-82.611179","city":"Gate City"},"24218":{"lat":"36.732778","state":"VA","long":"-83.082222","city":"Ben Hur"},"24263":{"lat":"36.689647","state":"VA","long":"-83.13615","city":"Jonesville"},"24230":{"lat":"36.960489","state":"VA","long":"-82.473497","city":"Coeburn"},"24219":{"lat":"36.858073","state":"VA","long":"-82.762727","city":"Big Stone Gap"},"24220":{"lat":"37.169481","state":"VA","long":"-82.248346","city":"Birchleaf"},"24209":{"lat":"36.59363","state":"VA","long":"-82.183378","city":"Bristol"},"24265":{"lat":"36.823931","state":"VA","long":"-82.977161","city":"Keokee"},"24243":{"lat":"36.781825","state":"VA","long":"-82.930478","city":"Dryden"},"24221":{"lat":"36.639011","state":"VA","long":"-82.98658","city":"Blackwater"},"24210":{"lat":"36.691644","state":"VA","long":"-82.019989","city":"Abingdon"},"24277":{"lat":"36.750752","state":"VA","long":"-83.022299","city":"Pennington Gap"},"24266":{"lat":"36.880895","state":"VA","long":"-82.09563","city":"Lebanon"},"24244":{"lat":"36.704402","state":"VA","long":"-82.80651","city":"Duffield"},"24211":{"lat":"36.6632","state":"VA","long":"-81.9635","city":"Abingdon"},"24256":{"lat":"37.220552","state":"VA","long":"-82.285306","city":"Haysi"},"24245":{"lat":"36.82416","state":"VA","long":"-82.496025","city":"Dungannon"},"24212":{"lat":"36.7097","state":"VA","long":"-81.9775","city":"Abingdon"},"24201":{"lat":"36.618093","state":"VA","long":"-82.182297","city":"Bristol"}});