ComSquarepushJsonzips.load_zips({"24477":{"lat":"38.014423","state":"VA","long":"-79.029821","city":"Stuarts Draft"},"24433":{"lat":"38.390248","state":"VA","long":"-79.482176","city":"Doe Hill"},"24422":{"lat":"37.820342","state":"VA","long":"-79.805423","city":"Clifton Forge"},"24411":{"lat":"38.101944","state":"VA","long":"-79.318333","city":"Augusta Springs"},"24467":{"lat":"38.261185","state":"VA","long":"-78.97296","city":"Mount Sidney"},"24445":{"lat":"37.963784","state":"VA","long":"-79.871662","city":"Hot Springs"},"24412":{"lat":"38.053889","state":"VA","long":"-79.843889","city":"Bacova"},"24401":{"lat":"38.145104","state":"VA","long":"-79.07519","city":"Staunton"},"24479":{"lat":"38.159117","state":"VA","long":"-79.187281","city":"Swoope"},"24468":{"lat":"38.286216","state":"VA","long":"-79.659137","city":"Mustoe"},"24457":{"lat":"37.788611","state":"VA","long":"-79.883889","city":"Low Moor"},"24435":{"lat":"37.877825","state":"VA","long":"-79.297922","city":"Fairfield"},"24413":{"lat":"38.515231","state":"VA","long":"-79.561272","city":"Blue Grass"},"24402":{"lat":"38.149444","state":"VA","long":"-79.071944","city":"Staunton"},"24469":{"lat":"38.197778","state":"VA","long":"-78.906111","city":"New Hope"},"24458":{"lat":"38.326588","state":"VA","long":"-79.498798","city":"Mc Dowell"},"24459":{"lat":"38.024158","state":"VA","long":"-79.281165","city":"Middlebrook"},"24448":{"lat":"37.7975","state":"VA","long":"-79.791389","city":"Iron Gate"},"24437":{"lat":"38.210928","state":"VA","long":"-78.932583","city":"Fort Defiance"},"24426":{"lat":"37.784203","state":"VA","long":"-80.003176","city":"Covington"},"24415":{"lat":"37.928333","state":"VA","long":"-79.319444","city":"Brownsburg"},"24482":{"lat":"38.203726","state":"VA","long":"-79.005872","city":"Verona"},"24471":{"lat":"38.317167","state":"VA","long":"-78.810388","city":"Port Republic"},"24460":{"lat":"38.005795","state":"VA","long":"-79.640649","city":"Millboro"},"24438":{"lat":"37.752778","state":"VA","long":"-79.819167","city":"Glen Wilton"},"24416":{"lat":"37.739585","state":"VA","long":"-79.352311","city":"Buena Vista"},"24483":{"lat":"37.83777","state":"VA","long":"-79.213485","city":"Vesuvius"},"24472":{"lat":"37.937353","state":"VA","long":"-79.221903","city":"Raphine"},"24450":{"lat":"37.788463","state":"VA","long":"-79.458111","city":"Lexington"},"24439":{"lat":"37.987813","state":"VA","long":"-79.477325","city":"Goshen"},"24484":{"lat":"38.085119","state":"VA","long":"-79.807792","city":"Warm Springs"},"24473":{"lat":"37.896458","state":"VA","long":"-79.387421","city":"Rockbridge Baths"},"24440":{"lat":"38.001804","state":"VA","long":"-79.135876","city":"Greenville"},"24485":{"lat":"38.274397","state":"VA","long":"-79.320139","city":"West Augusta"},"24474":{"lat":"37.806389","state":"VA","long":"-79.848333","city":"Selma"},"24463":{"lat":"38.074444","state":"VA","long":"-79.101111","city":"Mint Spring"},"24441":{"lat":"38.248371","state":"VA","long":"-78.825528","city":"Grottoes"},"24430":{"lat":"38.076826","state":"VA","long":"-79.361883","city":"Craigsville"},"24486":{"lat":"38.293145","state":"VA","long":"-78.923454","city":"Weyers Cave"},"24464":{"lat":"37.839931","state":"VA","long":"-79.061079","city":"Montebello"},"24442":{"lat":"38.294611","state":"VA","long":"-79.435272","city":"Head Waters"},"24431":{"lat":"38.168422","state":"VA","long":"-78.841275","city":"Crimora"},"24487":{"lat":"38.177907","state":"VA","long":"-79.650607","city":"Williamsville"},"24476":{"lat":"37.925556","state":"VA","long":"-79.202778","city":"Steeles Tavern"},"24465":{"lat":"38.405821","state":"VA","long":"-79.59407","city":"Monterey"},"24432":{"lat":"38.184231","state":"VA","long":"-79.415186","city":"Deerfield"},"24421":{"lat":"38.234605","state":"VA","long":"-79.179126","city":"Churchville"}});