ComSquarepushJsonzips.load_zips({"24598":{"lat":"36.606231","state":"VA","long":"-78.760516","city":"Virgilina"},"24576":{"lat":"37.105833","state":"VA","long":"-79.002778","city":"Naruna"},"24565":{"lat":"36.858582","state":"VA","long":"-79.187034","city":"Java"},"24554":{"lat":"37.138581","state":"VA","long":"-79.104794","city":"Gladys"},"24543":{"lat":"36.58433","state":"VA","long":"-79.39698","city":"Danville"},"24521":{"lat":"37.602677","state":"VA","long":"-79.050572","city":"Amherst"},"24599":{"lat":"37.641473","state":"VA","long":"-78.755709","city":"Wingina"},"24588":{"lat":"37.25454","state":"VA","long":"-79.121507","city":"Rustburg"},"24577":{"lat":"36.944179","state":"VA","long":"-78.989766","city":"Nathalie"},"24566":{"lat":"36.715577","state":"VA","long":"-79.278284","city":"Keeling"},"24555":{"lat":"37.643","state":"VA","long":"-79.45898","city":"Glasgow"},"24544":{"lat":"36.5847","state":"VA","long":"-79.39753","city":"Danville"},"24533":{"lat":"37.643333","state":"VA","long":"-79.0225","city":"Clifford"},"24522":{"lat":"37.352951","state":"VA","long":"-78.822445","city":"Appomattox"},"24589":{"lat":"36.786194","state":"VA","long":"-78.786601","city":"Scottsburg"},"24578":{"lat":"37.660625","state":"VA","long":"-79.533045","city":"Natural Bridge"},"24556":{"lat":"37.348098","state":"VA","long":"-79.381277","city":"Goode"},"24534":{"lat":"36.863695","state":"VA","long":"-78.78618","city":"Clover"},"24523":{"lat":"37.315345","state":"VA","long":"-79.53311","city":"Bedford"},"24512":{"lat":"37.4502","state":"VA","long":"-79.2501","city":"Lynchburg"},"24501":{"lat":"37.386228","state":"VA","long":"-79.171464","city":"Lynchburg"},"24590":{"lat":"37.804937","state":"VA","long":"-78.473981","city":"Scottsville"},"24579":{"lat":"37.595667","state":"VA","long":"-79.503905","city":"Natural Bridge Station"},"24557":{"lat":"36.969515","state":"VA","long":"-79.338874","city":"Gretna"},"24535":{"lat":"36.620833","state":"VA","long":"-78.921944","city":"Cluster Springs"},"24513":{"lat":"37.351565","state":"VA","long":"-79.006564","city":"Lynchburg"},"24502":{"lat":"37.359635","state":"VA","long":"-79.211783","city":"Lynchburg"},"24580":{"lat":"36.558558","state":"VA","long":"-78.670959","city":"Nelson"},"24569":{"lat":"37.064374","state":"VA","long":"-79.121933","city":"Long Island"},"24558":{"lat":"36.762571","state":"VA","long":"-78.941494","city":"Halifax"},"24536":{"lat":"37.488659","state":"VA","long":"-79.315757","city":"Coleman Falls"},"24514":{"lat":"37.362884","state":"VA","long":"-79.171496","city":"Lynchburg"},"24503":{"lat":"37.437646","state":"VA","long":"-79.204982","city":"Lynchburg"},"24592":{"lat":"36.696335","state":"VA","long":"-78.918829","city":"South Boston"},"24581":{"lat":"37.643056","state":"VA","long":"-78.809167","city":"Norwood"},"24570":{"lat":"37.33361","state":"VA","long":"-79.455599","city":"Lowry"},"24526":{"lat":"37.530556","state":"VA","long":"-79.382706","city":"Big Island"},"24515":{"lat":"37.3802","state":"VA","long":"-79.1603","city":"Lynchburg"},"24504":{"lat":"37.390422","state":"VA","long":"-79.12142","city":"Lynchburg"},"24593":{"lat":"37.364345","state":"VA","long":"-78.905887","city":"Spout Spring"},"24571":{"lat":"37.152826","state":"VA","long":"-79.329716","city":"Lynch Station"},"24549":{"lat":"36.743008","state":"VA","long":"-79.457966","city":"Dry Fork"},"24538":{"lat":"37.336953","state":"VA","long":"-78.980353","city":"Concord"},"24527":{"lat":"36.667408","state":"VA","long":"-79.378869","city":"Blairs"},"24505":{"lat":"37.4146","state":"VA","long":"-79.1434","city":"Lynchburg"},"24594":{"lat":"36.625831","state":"VA","long":"-79.19495","city":"Sutherlin"},"24572":{"lat":"37.453102","state":"VA","long":"-79.114089","city":"Madison Heights"},"24550":{"lat":"37.261049","state":"VA","long":"-79.231723","city":"Evington"},"24539":{"lat":"36.873217","state":"VA","long":"-78.970634","city":"Crystal Hill"},"24528":{"lat":"37.082663","state":"VA","long":"-78.922679","city":"Brookneal"},"24517":{"lat":"37.122162","state":"VA","long":"-79.291145","city":"Altavista"},"24506":{"lat":"37.380342","state":"VA","long":"-79.159846","city":"Lynchburg"},"24595":{"lat":"37.552778","state":"VA","long":"-79.066667","city":"Sweet Briar"},"24562":{"lat":"37.765891","state":"VA","long":"-78.582355","city":"Howardsville"},"24551":{"lat":"37.337878","state":"VA","long":"-79.279116","city":"Forest"},"24540":{"lat":"36.621789","state":"VA","long":"-79.412441","city":"Danville"},"24529":{"lat":"36.61676","state":"VA","long":"-78.609266","city":"Buffalo Junction"},"24574":{"lat":"37.541366","state":"VA","long":"-79.17034","city":"Monroe"},"24563":{"lat":"37.079787","state":"VA","long":"-79.299995","city":"Hurt"},"24541":{"lat":"36.577937","state":"VA","long":"-79.441112","city":"Danville"},"24530":{"lat":"36.764748","state":"VA","long":"-79.628779","city":"Callands"},"24597":{"lat":"36.786684","state":"VA","long":"-79.110874","city":"Vernon Hill"},"24586":{"lat":"36.603483","state":"VA","long":"-79.298835","city":"Ringgold"},"24553":{"lat":"37.547252","state":"VA","long":"-78.850838","city":"Gladstone"},"24531":{"lat":"36.83099","state":"VA","long":"-79.429659","city":"Chatham"},"24520":{"lat":"36.589352","state":"VA","long":"-79.020237","city":"Alton"}});