ComSquarepushJsonzips.load_zips({"26296":{"lat":"38.808289","state":"WV","long":"-79.557752","city":"Whitmer"},"26285":{"lat":"38.931667","state":"WV","long":"-79.965833","city":"Norton"},"26263":{"lat":"38.957616","state":"WV","long":"-79.453403","city":"Dryfork"},"26241":{"lat":"38.925304","state":"WV","long":"-79.847115","city":"Elkins"},"26230":{"lat":"38.684242","state":"WV","long":"-80.209784","city":"Pickens"},"26219":{"lat":"38.872778","state":"WV","long":"-80.356667","city":"Frenchton"},"26208":{"lat":"38.379246","state":"WV","long":"-80.591408","city":"Camden On Gauley"},"26275":{"lat":"38.978611","state":"WV","long":"-79.949722","city":"Junior"},"26264":{"lat":"38.616313","state":"WV","long":"-79.793464","city":"Durbin"},"26253":{"lat":"38.828021","state":"WV","long":"-79.865121","city":"Beverly"},"26209":{"lat":"38.397222","state":"WV","long":"-80.141667","city":"Snowshoe"},"26298":{"lat":"38.486389","state":"WV","long":"-80.300833","city":"Bergoo"},"26287":{"lat":"39.105857","state":"WV","long":"-79.673448","city":"Parsons"},"26276":{"lat":"39.029854","state":"WV","long":"-79.775427","city":"Kerens"},"26254":{"lat":"38.934863","state":"WV","long":"-79.619347","city":"Bowden"},"26210":{"lat":"38.913422","state":"WV","long":"-80.288663","city":"Adrian"},"26288":{"lat":"38.476362","state":"WV","long":"-80.399798","city":"Webster Springs"},"26266":{"lat":"38.418528","state":"WV","long":"-80.496464","city":"Upperglade"},"26222":{"lat":"38.679583","state":"WV","long":"-80.402345","city":"Hacker Valley"},"26289":{"lat":"39.019628","state":"WV","long":"-79.53009","city":"Red Creek"},"26278":{"lat":"38.822158","state":"WV","long":"-80.013061","city":"Mabie"},"26267":{"lat":"38.933966","state":"WV","long":"-80.092611","city":"Ellamore"},"26234":{"lat":"38.781128","state":"WV","long":"-80.316276","city":"Rock Cave"},"26201":{"lat":"38.98407","state":"WV","long":"-80.217824","city":"Buckhannon"},"26268":{"lat":"38.866925","state":"WV","long":"-79.734202","city":"Glady"},"26257":{"lat":"38.91438","state":"WV","long":"-79.976724","city":"Coalton"},"26224":{"lat":"38.771258","state":"WV","long":"-80.138167","city":"Helvetia"},"26202":{"lat":"38.244657","state":"WV","long":"-80.634972","city":"Fenwick"},"26291":{"lat":"38.381207","state":"WV","long":"-80.040353","city":"Slatyfork"},"26280":{"lat":"38.732493","state":"WV","long":"-79.978569","city":"Mill Creek"},"26269":{"lat":"39.116836","state":"WV","long":"-79.641565","city":"Hambleton"},"26236":{"lat":"38.719393","state":"WV","long":"-80.312955","city":"Selbyville"},"26203":{"lat":"38.541864","state":"WV","long":"-80.574232","city":"Erbacon"},"26292":{"lat":"39.150517","state":"WV","long":"-79.503","city":"Thomas"},"26270":{"lat":"38.923369","state":"WV","long":"-79.524599","city":"Harman"},"26259":{"lat":"38.798611","state":"WV","long":"-79.896389","city":"Dailey"},"26237":{"lat":"38.856405","state":"WV","long":"-80.15799","city":"Tallmansville"},"26215":{"lat":"38.839225","state":"WV","long":"-80.342849","city":"Cleveland"},"26293":{"lat":"38.784903","state":"WV","long":"-79.916037","city":"Valley Bend"},"26282":{"lat":"38.551707","state":"WV","long":"-80.122391","city":"Monterville"},"26271":{"lat":"39.074814","state":"WV","long":"-79.630302","city":"Hendricks"},"26260":{"lat":"39.088227","state":"WV","long":"-79.456278","city":"Davis"},"26238":{"lat":"39.068445","state":"WV","long":"-80.143209","city":"Volga"},"26205":{"lat":"38.325389","state":"WV","long":"-80.64438","city":"Craigsville"},"26294":{"lat":"38.536637","state":"WV","long":"-80.044911","city":"Valley Head"},"26283":{"lat":"39.096357","state":"WV","long":"-79.789577","city":"Montrose"},"26261":{"lat":"38.222988","state":"WV","long":"-80.544481","city":"Richwood"},"26250":{"lat":"39.024439","state":"WV","long":"-79.949508","city":"Belington"},"26228":{"lat":"38.76183","state":"WV","long":"-80.372734","city":"Kanawha Head"},"26217":{"lat":"38.575471","state":"WV","long":"-80.431962","city":"Diana"},"26206":{"lat":"38.413273","state":"WV","long":"-80.535807","city":"Cowen"},"26273":{"lat":"38.678433","state":"WV","long":"-79.977544","city":"Huttonsville"},"26229":{"lat":"39.01","state":"WV","long":"-80.301667","city":"Lorentz"},"26218":{"lat":"38.851145","state":"WV","long":"-80.274339","city":"French Creek"}});