ComSquarepushJsonzips.load_zips({"27966":{"lat":"36.120674","state":"NC","long":"-75.827314","city":"Powells Point"},"27944":{"lat":"36.177058","state":"NC","long":"-76.424299","city":"Hertford"},"27922":{"lat":"36.333316","state":"NC","long":"-76.874568","city":"Cofield"},"27978":{"lat":"35.863007","state":"NC","long":"-75.77909","city":"Stumpy Point"},"27967":{"lat":"36.225556","state":"NC","long":"-76.933333","city":"Powellsville"},"27956":{"lat":"36.398686","state":"NC","long":"-76.003874","city":"Maple"},"27923":{"lat":"36.375064","state":"NC","long":"-75.934012","city":"Coinjock"},"27979":{"lat":"36.431605","state":"NC","long":"-76.609568","city":"Sunbury"},"27968":{"lat":"35.593333","state":"NC","long":"-75.468333","city":"Rodanthe"},"27957":{"lat":"36.087121","state":"NC","long":"-76.77756","city":"Merry Hill"},"27946":{"lat":"36.354303","state":"NC","long":"-76.617813","city":"Hobbsville"},"27935":{"lat":"36.434117","state":"NC","long":"-76.846341","city":"Eure"},"27924":{"lat":"36.190083","state":"NC","long":"-76.854799","city":"Colerain"},"27980":{"lat":"36.250239","state":"NC","long":"-76.642796","city":"Tyner"},"27969":{"lat":"36.461667","state":"NC","long":"-76.812778","city":"Roduco"},"27958":{"lat":"36.487094","state":"NC","long":"-76.114575","city":"Moyock"},"27947":{"lat":"36.173963","state":"NC","long":"-75.859469","city":"Jarvisburg"},"27936":{"lat":"35.235","state":"NC","long":"-75.628889","city":"Frisco"},"27925":{"lat":"35.905664","state":"NC","long":"-76.234481","city":"Columbia"},"27981":{"lat":"35.8425","state":"NC","long":"-75.638889","city":"Wanchese"},"27970":{"lat":"35.899413","state":"NC","long":"-76.580918","city":"Roper"},"27959":{"lat":"35.347209","state":"NC","long":"-75.567592","city":"Nags Head"},"27948":{"lat":"36.008793","state":"NC","long":"-75.675654","city":"Kill Devil Hills"},"27937":{"lat":"36.503618","state":"NC","long":"-76.764563","city":"Gates"},"27926":{"lat":"36.517946","state":"NC","long":"-76.597852","city":"Corapeake"},"27915":{"lat":"35.351944","state":"NC","long":"-75.510833","city":"Avon"},"27982":{"lat":"35.566667","state":"NC","long":"-75.468889","city":"Waves"},"27960":{"lat":"35.114444","state":"NC","long":"-75.981389","city":"Ocracoke"},"27949":{"lat":"36.100694","state":"NC","long":"-75.725373","city":"Kitty Hawk"},"27938":{"lat":"36.407171","state":"NC","long":"-76.732462","city":"Gatesville"},"27927":{"lat":"36.320646","state":"NC","long":"-75.813217","city":"Corolla"},"27916":{"lat":"36.304469","state":"NC","long":"-75.902914","city":"Aydlett"},"27983":{"lat":"36.015881","state":"NC","long":"-76.933612","city":"Windsor"},"27972":{"lat":"35.54","state":"NC","long":"-75.473333","city":"Salvo"},"27950":{"lat":"36.523167","state":"NC","long":"-75.970247","city":"Knotts Island"},"27939":{"lat":"36.233889","state":"NC","long":"-75.876808","city":"Grandy"},"27928":{"lat":"35.865303","state":"NC","long":"-76.419555","city":"Creswell"},"27917":{"lat":"36.358778","state":"NC","long":"-75.979284","city":"Barco"},"27906":{"lat":"36.30235","state":"NC","long":"-76.22408","city":"Elizabeth City"},"27973":{"lat":"36.377875","state":"NC","long":"-76.094451","city":"Shawboro"},"27962":{"lat":"35.850826","state":"NC","long":"-76.743148","city":"Plymouth"},"27929":{"lat":"36.429691","state":"NC","long":"-75.988399","city":"Currituck"},"27907":{"lat":"36.30237","state":"NC","long":"-76.22402","city":"Elizabeth City"},"27985":{"lat":"36.218889","state":"NC","long":"-76.464167","city":"Winfall"},"27974":{"lat":"36.258449","state":"NC","long":"-76.043168","city":"Shiloh"},"27941":{"lat":"36.086392","state":"NC","long":"-75.812143","city":"Harbinger"},"27930":{"lat":"36.19","state":"NC","long":"-76.466389","city":"Durants Neck"},"27919":{"lat":"36.309644","state":"NC","long":"-76.543586","city":"Belvidere"},"27986":{"lat":"36.382616","state":"NC","long":"-76.936007","city":"Winton"},"27964":{"lat":"36.078114","state":"NC","long":"-75.798285","city":"Point Harbor"},"27953":{"lat":"35.887191","state":"NC","long":"-75.944404","city":"Manns Harbor"},"27942":{"lat":"36.286586","state":"NC","long":"-76.776677","city":"Harrellsville"},"27920":{"lat":"35.2675","state":"NC","long":"-75.542778","city":"Buxton"},"27909":{"lat":"36.295051","state":"NC","long":"-76.244548","city":"Elizabeth City"},"27976":{"lat":"36.453576","state":"NC","long":"-76.303284","city":"South Mills"},"27965":{"lat":"36.257028","state":"NC","long":"-75.883018","city":"Poplar Branch"},"27954":{"lat":"35.894774","state":"NC","long":"-75.671418","city":"Manteo"},"27943":{"lat":"35.219167","state":"NC","long":"-75.690556","city":"Hatteras"},"27932":{"lat":"36.090777","state":"NC","long":"-76.622384","city":"Edenton"},"27921":{"lat":"36.324985","state":"NC","long":"-76.150002","city":"Camden"},"27910":{"lat":"36.295737","state":"NC","long":"-76.996632","city":"Ahoskie"}});