ComSquarepushJsonzips.load_zips({"28581":{"lat":"34.84124","state":"NC","long":"-76.428877","city":"Stacy"},"28538":{"lat":"35.437976","state":"NC","long":"-77.565555","city":"Hookerton"},"28560":{"lat":"35.101941","state":"NC","long":"-77.031945","city":"New Bern"},"28518":{"lat":"34.933962","state":"NC","long":"-77.769655","city":"Beulaville"},"28540":{"lat":"34.737456","state":"NC","long":"-77.462815","city":"Jacksonville"},"28539":{"lat":"34.69929","state":"NC","long":"-77.207928","city":"Hubert"},"28561":{"lat":"35.0456","state":"NC","long":"-77.057","city":"New Bern"},"28582":{"lat":"34.777672","state":"NC","long":"-77.130807","city":"Stella"},"28520":{"lat":"35.074881","state":"NC","long":"-76.08049","city":"Cedar Island"},"28519":{"lat":"35.121389","state":"NC","long":"-77.021111","city":"Bridgeton"},"28541":{"lat":"34.6689","state":"NC","long":"-77.2389","city":"Jacksonville"},"28562":{"lat":"35.100434","state":"NC","long":"-77.102874","city":"New Bern"},"28583":{"lat":"35.137222","state":"NC","long":"-76.748056","city":"Stonewall"},"28521":{"lat":"34.827609","state":"NC","long":"-77.763573","city":"Chinquapin"},"28542":{"lat":"34.665806","state":"NC","long":"-77.3373","city":"Camp Lejeune"},"28563":{"lat":"35.102","state":"NC","long":"-77.0994","city":"New Bern"},"28584":{"lat":"34.699066","state":"NC","long":"-77.135013","city":"Swansboro"},"28501":{"lat":"35.278333","state":"NC","long":"-77.585969","city":"Kinston"},"28522":{"lat":"35.005556","state":"NC","long":"-77.488333","city":"Comfort"},"28543":{"lat":"34.73542","state":"NC","long":"-77.383114","city":"Tarawa Terrace"},"28564":{"lat":"35.074937","state":"NC","long":"-77.025517","city":"New Bern"},"28585":{"lat":"35.074481","state":"NC","long":"-77.459473","city":"Trenton"},"28586":{"lat":"35.306255","state":"NC","long":"-77.171618","city":"Vanceboro"},"28502":{"lat":"35.26017","state":"NC","long":"-77.57979","city":"Kinston"},"28523":{"lat":"35.202274","state":"NC","long":"-77.296306","city":"Cove City"},"28544":{"lat":"34.726994","state":"NC","long":"-77.320001","city":"Midway Park"},"28587":{"lat":"35.195298","state":"NC","long":"-76.657088","city":"Vandemere"},"28503":{"lat":"35.26034","state":"NC","long":"-77.57973","city":"Kinston"},"28524":{"lat":"34.797222","state":"NC","long":"-76.460556","city":"Davis"},"28545":{"lat":"34.7157","state":"NC","long":"-77.4501","city":"Mccutcheon Field"},"28504":{"lat":"35.2566","state":"NC","long":"-77.6287","city":"Kinston"},"28525":{"lat":"35.162991","state":"NC","long":"-77.69275","city":"Deep Run"},"28546":{"lat":"34.77401","state":"NC","long":"-77.378097","city":"Jacksonville"},"28590":{"lat":"35.533582","state":"NC","long":"-77.39097","city":"Winterville"},"28589":{"lat":"34.789167","state":"NC","long":"-76.505556","city":"Williston"},"28526":{"lat":"35.262652","state":"NC","long":"-77.372688","city":"Dover"},"28547":{"lat":"34.699167","state":"NC","long":"-77.368056","city":"Camp Lejeune"},"28570":{"lat":"34.755076","state":"NC","long":"-76.906945","city":"Newport"},"28527":{"lat":"35.254693","state":"NC","long":"-77.050164","city":"Ernul"},"28528":{"lat":"34.685645","state":"NC","long":"-76.527627","city":"Gloucester"},"28571":{"lat":"35.036406","state":"NC","long":"-76.701521","city":"Oriental"},"28508":{"lat":"35.117647","state":"NC","long":"-77.851517","city":"Albertson"},"28530":{"lat":"35.375681","state":"NC","long":"-77.4193","city":"Grifton"},"28529":{"lat":"35.122186","state":"NC","long":"-76.884387","city":"Grantsboro"},"28551":{"lat":"35.305381","state":"NC","long":"-77.76862","city":"La Grange"},"28572":{"lat":"35.066351","state":"NC","long":"-77.712148","city":"Pink Hill"},"28594":{"lat":"34.666195","state":"NC","long":"-77.025961","city":"Emerald Isle"},"28510":{"lat":"35.0055","state":"NC","long":"-76.814909","city":"Arapahoe"},"28509":{"lat":"35.144722","state":"NC","long":"-76.8025","city":"Alliance"},"28531":{"lat":"34.69663","state":"NC","long":"-76.558301","city":"Harkers Island"},"28552":{"lat":"35.305955","state":"NC","long":"-76.5777","city":"Lowland"},"28573":{"lat":"35.015105","state":"NC","long":"-77.228727","city":"Pollocksville"},"28511":{"lat":"34.888827","state":"NC","long":"-76.352097","city":"Atlantic"},"28532":{"lat":"34.896753","state":"NC","long":"-76.890042","city":"Havelock"},"28553":{"lat":"34.726472","state":"NC","long":"-76.517323","city":"Marshallberg"},"28574":{"lat":"34.862426","state":"NC","long":"-77.586305","city":"Richlands"},"28512":{"lat":"34.697295","state":"NC","long":"-76.815163","city":"Atlantic Beach"},"28533":{"lat":"34.939722","state":"NC","long":"-76.8225","city":"Cherry Point"},"28554":{"lat":"35.481944","state":"NC","long":"-77.586389","city":"Maury"},"28575":{"lat":"34.688333","state":"NC","long":"-76.886389","city":"Salter Path"},"28513":{"lat":"35.456471","state":"NC","long":"-77.405127","city":"Ayden"},"28555":{"lat":"34.869077","state":"NC","long":"-77.231456","city":"Maysville"},"28556":{"lat":"35.1228","state":"NC","long":"-76.699401","city":"Merritt"},"28577":{"lat":"34.876949","state":"NC","long":"-76.389778","city":"Sealevel"},"28515":{"lat":"35.152598","state":"NC","long":"-76.751793","city":"Bayboro"},"28557":{"lat":"34.72532","state":"NC","long":"-76.753069","city":"Morehead City"},"28578":{"lat":"35.210466","state":"NC","long":"-77.914621","city":"Seven Springs"},"28537":{"lat":"35.251838","state":"NC","long":"-76.569602","city":"Hobucken"},"28580":{"lat":"35.443848","state":"NC","long":"-77.695565","city":"Snow Hill"},"28579":{"lat":"34.773384","state":"NC","long":"-76.515313","city":"Smyrna"},"28516":{"lat":"34.758037","state":"NC","long":"-76.622834","city":"Beaufort"}});