ComSquarepushJsonzips.load_zips({"29385":{"lat":"34.951394","state":"SC","long":"-82.092706","city":"Wellford"},"29374":{"lat":"34.774808","state":"SC","long":"-81.857853","city":"Pauline"},"29341":{"lat":"35.1059","state":"SC","long":"-81.6925","city":"Gaffney"},"29330":{"lat":"35.038979","state":"SC","long":"-81.822019","city":"Cowpens"},"29319":{"lat":"34.95","state":"SC","long":"-81.929","city":"Spartanburg"},"29386":{"lat":"34.902778","state":"SC","long":"-81.817222","city":"White Stone"},"29375":{"lat":"34.862778","state":"SC","long":"-82.114444","city":"Reidville"},"29364":{"lat":"34.786389","state":"SC","long":"-81.462222","city":"Lockhart"},"29353":{"lat":"34.837368","state":"SC","long":"-81.684218","city":"Jonesville"},"29342":{"lat":"35.0716","state":"SC","long":"-81.65","city":"Gaffney"},"29331":{"lat":"34.642778","state":"SC","long":"-81.858056","city":"Cross Anchor"},"29320":{"lat":"34.958056","state":"SC","long":"-81.990833","city":"Arcadia"},"29376":{"lat":"34.8688","state":"SC","long":"-81.95255","city":"Roebuck"},"29365":{"lat":"34.968443","state":"SC","long":"-82.143479","city":"Lyman"},"29332":{"lat":"34.269274","state":"SC","long":"-81.984278","city":"Cross Hill"},"29321":{"lat":"34.724703","state":"SC","long":"-81.682576","city":"Buffalo"},"29388":{"lat":"34.757864","state":"SC","long":"-82.044658","city":"Woodruff"},"29377":{"lat":"34.928333","state":"SC","long":"-82.099167","city":"Startex"},"29355":{"lat":"34.355219","state":"SC","long":"-81.71975","city":"Kinards"},"29333":{"lat":"34.967778","state":"SC","long":"-81.906667","city":"Drayton"},"29322":{"lat":"35.108003","state":"SC","long":"-82.140343","city":"Campobello"},"29378":{"lat":"34.968889","state":"SC","long":"-81.970556","city":"Una"},"29356":{"lat":"35.156486","state":"SC","long":"-82.211473","city":"Landrum"},"29334":{"lat":"34.917645","state":"SC","long":"-82.125821","city":"Duncan"},"29323":{"lat":"35.115398","state":"SC","long":"-81.867827","city":"Chesnee"},"29301":{"lat":"34.935211","state":"SC","long":"-81.965377","city":"Spartanburg"},"29390":{"lat":"34.9375","state":"SC","long":"-82.1421","city":"Duncan"},"29379":{"lat":"34.726855","state":"SC","long":"-81.620235","city":"Union"},"29368":{"lat":"35.083889","state":"SC","long":"-81.86","city":"Mayo"},"29346":{"lat":"34.944722","state":"SC","long":"-81.837778","city":"Glendale"},"29335":{"lat":"34.670952","state":"SC","long":"-81.92373","city":"Enoree"},"29324":{"lat":"34.979444","state":"SC","long":"-81.818056","city":"Clifton"},"29302":{"lat":"34.956283","state":"SC","long":"-81.873625","city":"Spartanburg"},"29391":{"lat":"34.915157","state":"SC","long":"-82.099422","city":"Duncan"},"29369":{"lat":"34.883453","state":"SC","long":"-82.017893","city":"Moore"},"29336":{"lat":"34.956389","state":"SC","long":"-82.010278","city":"Fairforest"},"29325":{"lat":"34.470692","state":"SC","long":"-81.87717","city":"Clinton"},"29303":{"lat":"34.993728","state":"SC","long":"-81.957566","city":"Spartanburg"},"29370":{"lat":"34.340791","state":"SC","long":"-81.958429","city":"Mountville"},"29348":{"lat":"35.076667","state":"SC","long":"-82.132778","city":"Gramling"},"29304":{"lat":"34.9445","state":"SC","long":"-81.9294","city":"Spartanburg"},"29360":{"lat":"34.500714","state":"SC","long":"-82.026774","city":"Laurens"},"29349":{"lat":"35.052795","state":"SC","long":"-82.054013","city":"Inman"},"29338":{"lat":"35.133889","state":"SC","long":"-82.006667","city":"Fingerville"},"29316":{"lat":"35.0342","state":"SC","long":"-81.9775","city":"Boiling Springs"},"29305":{"lat":"35.0039","state":"SC","long":"-81.9702","city":"Spartanburg"},"29372":{"lat":"34.901708","state":"SC","long":"-81.758703","city":"Pacolet"},"29306":{"lat":"34.9195","state":"SC","long":"-81.9291","city":"Spartanburg"},"29395":{"lat":"34.835833","state":"SC","long":"-81.681111","city":"Jonesville"},"29384":{"lat":"34.33673","state":"SC","long":"-82.087968","city":"Waterloo"},"29373":{"lat":"34.9225","state":"SC","long":"-81.742778","city":"Pacolet Mills"},"29351":{"lat":"34.406795","state":"SC","long":"-81.81907","city":"Joanna"},"29340":{"lat":"35.061508","state":"SC","long":"-81.649061","city":"Gaffney"},"29329":{"lat":"34.991944","state":"SC","long":"-81.835","city":"Converse"},"29318":{"lat":"34.964706","state":"SC","long":"-81.89453","city":"Spartanburg"},"29307":{"lat":"34.983","state":"SC","long":"-81.8569","city":"Spartanburg"}});