ComSquarepushJsonzips.load_zips({"30474":{"lat":"32.193408","state":"GA","long":"-82.406724","city":"Vidalia"},"30452":{"lat":"32.338235","state":"GA","long":"-81.872828","city":"Register"},"30441":{"lat":"32.863794","state":"GA","long":"-82.204181","city":"Midville"},"30475":{"lat":"32.2175","state":"GA","long":"-82.413611","city":"Vidalia"},"30464":{"lat":"32.441944","state":"GA","long":"-82.215278","city":"Stillmore"},"30453":{"lat":"32.054759","state":"GA","long":"-82.147809","city":"Reidsville"},"30442":{"lat":"32.787739","state":"GA","long":"-81.961807","city":"Millen"},"30420":{"lat":"32.264237","state":"GA","long":"-82.133274","city":"Cobbtown"},"30454":{"lat":"32.391507","state":"GA","long":"-82.747939","city":"Rockledge"},"30421":{"lat":"32.185228","state":"GA","long":"-82.10948","city":"Collins"},"30410":{"lat":"32.214262","state":"GA","long":"-82.47619","city":"Ailey"},"30499":{"lat":"32.086667","state":"GA","long":"-82.118056","city":"Reidsville"},"30477":{"lat":"32.874742","state":"GA","long":"-82.402459","city":"Wadley"},"30455":{"lat":"32.656863","state":"GA","long":"-81.741749","city":"Rocky Ford"},"30411":{"lat":"32.13298","state":"GA","long":"-82.794445","city":"Alamo"},"30467":{"lat":"32.77627","state":"GA","long":"-81.633394","city":"Sylvania"},"30456":{"lat":"32.980946","state":"GA","long":"-81.773039","city":"Sardis"},"30445":{"lat":"32.18398","state":"GA","long":"-82.58672","city":"Mount Vernon"},"30434":{"lat":"33.016342","state":"GA","long":"-82.383616","city":"Louisville"},"30423":{"lat":"32.151667","state":"GA","long":"-81.834722","city":"Daisy"},"30412":{"lat":"32.080556","state":"GA","long":"-82.477778","city":"Alston"},"30401":{"lat":"32.581938","state":"GA","long":"-82.338668","city":"Swainsboro"},"30457":{"lat":"32.386861","state":"GA","long":"-82.587098","city":"Soperton"},"30446":{"lat":"32.588385","state":"GA","long":"-81.532686","city":"Newington"},"30424":{"lat":"32.576944","state":"GA","long":"-81.715278","city":"Dover"},"30413":{"lat":"32.863186","state":"GA","long":"-82.470788","city":"Bartow"},"30458":{"lat":"32.440841","state":"GA","long":"-81.773956","city":"Statesboro"},"30447":{"lat":"32.498889","state":"GA","long":"-82.493889","city":"Norristown"},"30436":{"lat":"32.171148","state":"GA","long":"-82.307783","city":"Lyons"},"30425":{"lat":"32.600776","state":"GA","long":"-82.085599","city":"Garfield"},"30414":{"lat":"32.152222","state":"GA","long":"-81.974444","city":"Bellville"},"30470":{"lat":"32.290623","state":"GA","long":"-82.516933","city":"Tarrytown"},"30459":{"lat":"32.4486","state":"GA","long":"-81.7833","city":"Statesboro"},"30448":{"lat":"32.491111","state":"GA","long":"-82.347222","city":"Nunez"},"30426":{"lat":"33.043689","state":"GA","long":"-81.710581","city":"Girard"},"30415":{"lat":"32.294046","state":"GA","long":"-81.628003","city":"Brooklet"},"30471":{"lat":"32.612926","state":"GA","long":"-82.197856","city":"Twin City"},"30460":{"lat":"32.4281","state":"GA","long":"-81.7848","city":"Statesboro"},"30449":{"lat":"32.521389","state":"GA","long":"-81.533333","city":"Oliver"},"30438":{"lat":"32.096551","state":"GA","long":"-82.052925","city":"Manassas"},"30427":{"lat":"31.946708","state":"GA","long":"-81.948313","city":"Glennville"},"30461":{"lat":"32.4879","state":"GA","long":"-81.7336","city":"Statesboro"},"30450":{"lat":"32.55504","state":"GA","long":"-81.912257","city":"Portal"},"30439":{"lat":"32.401034","state":"GA","long":"-82.060722","city":"Metter"},"30428":{"lat":"32.157243","state":"GA","long":"-82.675881","city":"Glenwood"},"30417":{"lat":"32.165009","state":"GA","long":"-81.908032","city":"Claxton"},"30473":{"lat":"32.048271","state":"GA","long":"-82.508879","city":"Uvalda"},"30451":{"lat":"32.39","state":"GA","long":"-81.956944","city":"Pulaski"},"30429":{"lat":"32.155833","state":"GA","long":"-81.933889","city":"Hagan"}});