ComSquarepushJsonzips.load_zips({"35094":{"lat":"33.528333","state":"AL","long":"-86.574824","city":"Leeds"},"35083":{"lat":"34.190085","state":"AL","long":"-86.617441","city":"Holly Pond"},"35072":{"lat":"33.074642","state":"AL","long":"-86.078149","city":"Goodwater"},"35061":{"lat":"33.465424","state":"AL","long":"-86.956435","city":"Dolomite"},"35006":{"lat":"33.434277","state":"AL","long":"-87.167455","city":"Adger"},"35073":{"lat":"33.63356","state":"AL","long":"-86.948221","city":"Graysville"},"35062":{"lat":"33.734947","state":"AL","long":"-87.040148","city":"Dora"},"35051":{"lat":"33.176964","state":"AL","long":"-86.616145","city":"Columbiana"},"35040":{"lat":"33.1098","state":"AL","long":"-86.755987","city":"Calera"},"35007":{"lat":"33.236868","state":"AL","long":"-86.812861","city":"Alabaster"},"35096":{"lat":"33.605913","state":"AL","long":"-86.111152","city":"Lincoln"},"35085":{"lat":"32.980539","state":"AL","long":"-86.718052","city":"Jemison"},"35074":{"lat":"33.225","state":"AL","long":"-87.126389","city":"Green Pond"},"35063":{"lat":"33.825589","state":"AL","long":"-87.016139","city":"Empire"},"35052":{"lat":"33.589722","state":"AL","long":"-86.361944","city":"Cook Springs"},"35041":{"lat":"33.645556","state":"AL","long":"-86.933611","city":"Cardiff"},"35019":{"lat":"34.268298","state":"AL","long":"-86.621299","city":"Baileyton"},"35097":{"lat":"33.9075","state":"AL","long":"-86.615278","city":"Locust Fork"},"35064":{"lat":"33.473494","state":"AL","long":"-86.918262","city":"Fairfield"},"35053":{"lat":"34.082117","state":"AL","long":"-87.048395","city":"Crane Hill"},"35042":{"lat":"32.950324","state":"AL","long":"-87.11924","city":"Centreville"},"35031":{"lat":"34.092937","state":"AL","long":"-86.568628","city":"Blountsville"},"35020":{"lat":"33.409002","state":"AL","long":"-86.947547","city":"Bessemer"},"35098":{"lat":"34.184079","state":"AL","long":"-87.038115","city":"Logan"},"35087":{"lat":"34.283739","state":"AL","long":"-86.551939","city":"Joppa"},"35054":{"lat":"33.506448","state":"AL","long":"-86.280026","city":"Cropwell"},"35043":{"lat":"33.371582","state":"AL","long":"-86.614132","city":"Chelsea"},"35032":{"lat":"33.263611","state":"AL","long":"-86.335556","city":"Bon Air"},"35021":{"lat":"33.3942","state":"AL","long":"-86.9609","city":"Bessemer"},"35010":{"lat":"32.941445","state":"AL","long":"-85.951086","city":"Alexander City"},"35077":{"lat":"34.051569","state":"AL","long":"-86.784844","city":"Hanceville"},"35055":{"lat":"34.176146","state":"AL","long":"-86.829777","city":"Cullman"},"35044":{"lat":"33.266928","state":"AL","long":"-86.337622","city":"Childersburg"},"35033":{"lat":"33.973664","state":"AL","long":"-87.004281","city":"Bremen"},"35022":{"lat":"33.3483","state":"AL","long":"-86.9618","city":"Bessemer"},"35011":{"lat":"32.943889","state":"AL","long":"-85.953889","city":"Alexander City"},"35089":{"lat":"32.979068","state":"AL","long":"-86.048397","city":"Kellyton"},"35078":{"lat":"33.36746","state":"AL","long":"-86.429441","city":"Harpersville"},"35056":{"lat":"34.1747","state":"AL","long":"-86.8436","city":"Cullman"},"35045":{"lat":"32.835532","state":"AL","long":"-86.642472","city":"Clanton"},"35034":{"lat":"32.93567","state":"AL","long":"-87.211387","city":"Brent"},"35023":{"lat":"33.414625","state":"AL","long":"-86.999607","city":"Bessemer"},"35079":{"lat":"33.885806","state":"AL","long":"-86.81767","city":"Hayden"},"35068":{"lat":"33.611283","state":"AL","long":"-86.813614","city":"Fultondale"},"35057":{"lat":"34.1342","state":"AL","long":"-86.9321","city":"Cullman"},"35046":{"lat":"32.838611","state":"AL","long":"-86.629444","city":"Clanton"},"35035":{"lat":"33.042747","state":"AL","long":"-86.951672","city":"Brierfield"},"35013":{"lat":"33.911944","state":"AL","long":"-86.509444","city":"Allgood"},"35091":{"lat":"33.768355","state":"AL","long":"-86.808417","city":"Kimberly"},"35080":{"lat":"33.316978","state":"AL","long":"-86.813786","city":"Helena"},"35058":{"lat":"34.2277","state":"AL","long":"-86.7637","city":"Cullman"},"35036":{"lat":"33.637778","state":"AL","long":"-86.916667","city":"Brookside"},"35014":{"lat":"33.331165","state":"AL","long":"-86.208934","city":"Alpine"},"35070":{"lat":"34.014444","state":"AL","long":"-86.746944","city":"Garden City"},"35048":{"lat":"33.7025","state":"AL","long":"-86.599722","city":"Clay"},"35015":{"lat":"33.579167","state":"AL","long":"-86.6375","city":"Alton"},"35004":{"lat":"33.584132","state":"AL","long":"-86.51557","city":"Moody"},"35082":{"lat":"33.1175","state":"AL","long":"-86.144444","city":"Hollins"},"35071":{"lat":"33.71891","state":"AL","long":"-86.822481","city":"Gardendale"},"35060":{"lat":"33.559444","state":"AL","long":"-86.931111","city":"Docena"},"35049":{"lat":"33.992106","state":"AL","long":"-86.559355","city":"Cleveland"},"35038":{"lat":"33.707778","state":"AL","long":"-87.0875","city":"Burnwell"},"35016":{"lat":"34.328339","state":"AL","long":"-86.489638","city":"Arab"},"35005":{"lat":"33.588437","state":"AL","long":"-86.959727","city":"Adamsville"}});