ComSquarepushJsonzips.load_zips({"35182":{"lat":"33.681389","state":"AL","long":"-86.279722","city":"Wattsville"},"35171":{"lat":"32.923755","state":"AL","long":"-86.746724","city":"Thorsby"},"35160":{"lat":"33.435445","state":"AL","long":"-86.113352","city":"Talladega"},"35149":{"lat":"33.251111","state":"AL","long":"-86.2025","city":"Sycamore"},"35127":{"lat":"33.488336","state":"AL","long":"-86.976586","city":"Pleasant Grove"},"35116":{"lat":"33.739172","state":"AL","long":"-86.772551","city":"Morris"},"35183":{"lat":"33.02381","state":"AL","long":"-86.304203","city":"Weogufka"},"35172":{"lat":"33.819038","state":"AL","long":"-86.743414","city":"Trafford"},"35161":{"lat":"33.435833","state":"AL","long":"-86.105833","city":"Talladega"},"35150":{"lat":"33.171675","state":"AL","long":"-86.271257","city":"Sylacauga"},"35139":{"lat":"33.712222","state":"AL","long":"-86.974444","city":"Sayre"},"35128":{"lat":"33.586111","state":"AL","long":"-86.286111","city":"Pell City"},"35117":{"lat":"33.67678","state":"AL","long":"-86.87171","city":"Mount Olive"},"35184":{"lat":"33.142431","state":"AL","long":"-87.13694","city":"West Blocton"},"35173":{"lat":"33.633932","state":"AL","long":"-86.598068","city":"Trussville"},"35151":{"lat":"33.191667","state":"AL","long":"-86.299444","city":"Sylacauga"},"35118":{"lat":"33.540696","state":"AL","long":"-87.043998","city":"Mulga"},"35185":{"lat":"33.349444","state":"AL","long":"-86.535833","city":"Westover"},"35130":{"lat":"33.656065","state":"AL","long":"-87.10066","city":"Quinton"},"35119":{"lat":"33.648889","state":"AL","long":"-86.768611","city":"New Castle"},"35186":{"lat":"33.229255","state":"AL","long":"-86.529894","city":"Wilsonville"},"35175":{"lat":"34.409345","state":"AL","long":"-86.462793","city":"Union Grove"},"35142":{"lat":"33.405278","state":"AL","long":"-86.871944","city":"Shannon"},"35131":{"lat":"33.736677","state":"AL","long":"-86.1619","city":"Ragland"},"35120":{"lat":"33.675611","state":"AL","long":"-86.408952","city":"Odenville"},"35187":{"lat":"33.078611","state":"AL","long":"-86.881667","city":"Wilton"},"35176":{"lat":"33.480704","state":"AL","long":"-86.501278","city":"Vandiver"},"35143":{"lat":"33.078483","state":"AL","long":"-86.553606","city":"Shelby"},"35121":{"lat":"33.925858","state":"AL","long":"-86.474118","city":"Oneonta"},"35188":{"lat":"33.169808","state":"AL","long":"-87.163469","city":"Woodstock"},"35144":{"lat":"33.244167","state":"AL","long":"-86.816389","city":"Siluria"},"35133":{"lat":"33.846204","state":"AL","long":"-86.641662","city":"Remlap"},"35111":{"lat":"33.284546","state":"AL","long":"-87.102379","city":"Mc Calla"},"35178":{"lat":"33.401049","state":"AL","long":"-86.399425","city":"Vincent"},"35123":{"lat":"33.738611","state":"AL","long":"-86.646111","city":"Palmerdale"},"35112":{"lat":"33.686111","state":"AL","long":"-86.475","city":"Margaret"},"35179":{"lat":"34.262121","state":"AL","long":"-86.912512","city":"Vinemont"},"35146":{"lat":"33.738647","state":"AL","long":"-86.439407","city":"Springville"},"35135":{"lat":"33.608832","state":"AL","long":"-86.198341","city":"Riverside"},"35124":{"lat":"33.31046","state":"AL","long":"-86.806176","city":"Pelham"},"35180":{"lat":"33.852862","state":"AL","long":"-86.819849","city":"Warrior"},"35147":{"lat":"33.446103","state":"AL","long":"-86.491732","city":"Sterrett"},"35136":{"lat":"32.877957","state":"AL","long":"-86.240006","city":"Rockford"},"35125":{"lat":"33.597889","state":"AL","long":"-86.343151","city":"Pell City"},"35114":{"lat":"33.231694","state":"AL","long":"-86.872745","city":"Maylene"},"35181":{"lat":"33.633611","state":"AL","long":"-86.879444","city":"Watson"},"35148":{"lat":"33.768005","state":"AL","long":"-87.044545","city":"Sumiton"},"35137":{"lat":"33.216111","state":"AL","long":"-86.791944","city":"Saginaw"},"35126":{"lat":"33.708131","state":"AL","long":"-86.656542","city":"Pinson"},"35115":{"lat":"33.124765","state":"AL","long":"-86.862228","city":"Montevallo"}});