ComSquarepushJsonzips.load_zips({"35776":{"lat":"34.668927","state":"AL","long":"-86.22961","city":"Woodville"},"35765":{"lat":"34.688601","state":"AL","long":"-85.803044","city":"Pisgah"},"35754":{"lat":"34.499647","state":"AL","long":"-86.612869","city":"Laceys Spring"},"35766":{"lat":"34.840217","state":"AL","long":"-86.250068","city":"Princeton"},"35755":{"lat":"34.497831","state":"AL","long":"-86.10563","city":"Langston"},"35744":{"lat":"34.604558","state":"AL","long":"-85.906729","city":"Dutton"},"35767":{"lat":"34.769722","state":"AL","long":"-86.480833","city":"Ryland"},"35756":{"lat":"34.6578","state":"AL","long":"-86.8056","city":"Madison"},"35745":{"lat":"34.913017","state":"AL","long":"-86.171571","city":"Estillfork"},"35768":{"lat":"34.67227","state":"AL","long":"-86.051336","city":"Scottsboro"},"35757":{"lat":"34.7837","state":"AL","long":"-86.7486","city":"Madison"},"35746":{"lat":"34.82589","state":"AL","long":"-85.984648","city":"Fackler"},"35769":{"lat":"34.672222","state":"AL","long":"-86.034167","city":"Scottsboro"},"35758":{"lat":"34.713409","state":"AL","long":"-86.750951","city":"Madison"},"35747":{"lat":"34.495902","state":"AL","long":"-86.259041","city":"Grant"},"35759":{"lat":"34.861779","state":"AL","long":"-86.578879","city":"Meridianville"},"35748":{"lat":"34.713964","state":"AL","long":"-86.394028","city":"Gurley"},"35771":{"lat":"34.543275","state":"AL","long":"-85.994002","city":"Section"},"35760":{"lat":"34.549445","state":"AL","long":"-86.3961","city":"New Hope"},"35749":{"lat":"34.82732","state":"AL","long":"-86.749929","city":"Harvest"},"35772":{"lat":"34.876885","state":"AL","long":"-85.850803","city":"Stevenson"},"35761":{"lat":"34.899991","state":"AL","long":"-86.448742","city":"New Market"},"35750":{"lat":"34.949627","state":"AL","long":"-86.593484","city":"Hazel Green"},"35739":{"lat":"34.980447","state":"AL","long":"-86.834612","city":"Ardmore"},"35773":{"lat":"34.911644","state":"AL","long":"-86.699951","city":"Toney"},"35762":{"lat":"34.788889","state":"AL","long":"-86.571944","city":"Normal"},"35751":{"lat":"34.798979","state":"AL","long":"-86.233627","city":"Hollytree"},"35740":{"lat":"34.944638","state":"AL","long":"-85.727681","city":"Bridgeport"},"35774":{"lat":"34.740065","state":"AL","long":"-86.291264","city":"Trenton"},"35763":{"lat":"34.612859","state":"AL","long":"-86.466577","city":"Owens Cross Roads"},"35752":{"lat":"34.730428","state":"AL","long":"-85.953173","city":"Hollywood"},"35741":{"lat":"34.716733","state":"AL","long":"-86.468703","city":"Brownsboro"},"35775":{"lat":"34.538145","state":"AL","long":"-86.678","city":"Valhermoso Springs"},"35764":{"lat":"34.667122","state":"AL","long":"-86.332562","city":"Paint Rock"},"35742":{"lat":"34.773056","state":"AL","long":"-86.792778","city":"Capshaw"}});