ComSquarepushJsonzips.load_zips({"35974":{"lat":"34.343864","state":"AL","long":"-86.040393","city":"Geraldine"},"35963":{"lat":"34.356838","state":"AL","long":"-85.929161","city":"Dawson"},"35952":{"lat":"34.042916","state":"AL","long":"-86.350879","city":"Altoona"},"35986":{"lat":"34.498884","state":"AL","long":"-85.844605","city":"Rainsville"},"35975":{"lat":"34.435874","state":"AL","long":"-86.040023","city":"Groveoak"},"35964":{"lat":"34.173611","state":"AL","long":"-86.323611","city":"Douglas"},"35953":{"lat":"33.837366","state":"AL","long":"-86.255167","city":"Ashville"},"35987":{"lat":"33.941679","state":"AL","long":"-86.228929","city":"Steele"},"35976":{"lat":"34.32193","state":"AL","long":"-86.305463","city":"Guntersville"},"35954":{"lat":"34.029597","state":"AL","long":"-86.096717","city":"Attalla"},"35988":{"lat":"34.558962","state":"AL","long":"-85.792128","city":"Sylvania"},"35966":{"lat":"34.807598","state":"AL","long":"-85.708372","city":"Flat Rock"},"35989":{"lat":"34.5697","state":"AL","long":"-85.627208","city":"Valley Head"},"35978":{"lat":"34.618604","state":"AL","long":"-85.727381","city":"Henagar"},"35967":{"lat":"34.436792","state":"AL","long":"-85.712394","city":"Fort Payne"},"35956":{"lat":"34.173889","state":"AL","long":"-86.121111","city":"Boaz"},"35901":{"lat":"33.997248","state":"AL","long":"-86.010279","city":"Gadsden"},"35990":{"lat":"34.065556","state":"AL","long":"-86.306389","city":"Walnut Grove"},"35979":{"lat":"34.873247","state":"AL","long":"-85.622507","city":"Higdon"},"35968":{"lat":"34.444167","state":"AL","long":"-85.719722","city":"Fort Payne"},"35957":{"lat":"34.173686","state":"AL","long":"-86.148003","city":"Boaz"},"35902":{"lat":"34.0747","state":"AL","long":"-85.9352","city":"Gadsden"},"35980":{"lat":"34.190033","state":"AL","long":"-86.317318","city":"Horton"},"35958":{"lat":"34.945026","state":"AL","long":"-85.632445","city":"Bryant"},"35903":{"lat":"33.997057","state":"AL","long":"-85.928724","city":"Gadsden"},"35981":{"lat":"34.735059","state":"AL","long":"-85.641577","city":"Ider"},"35959":{"lat":"34.241662","state":"AL","long":"-85.602567","city":"Cedar Bluff"},"35904":{"lat":"34.021694","state":"AL","long":"-86.049479","city":"Gadsden"},"35971":{"lat":"34.437284","state":"AL","long":"-85.928849","city":"Fyffe"},"35960":{"lat":"34.111592","state":"AL","long":"-85.609229","city":"Centre"},"35905":{"lat":"33.956787","state":"AL","long":"-85.927586","city":"Gadsden"},"35983":{"lat":"34.191083","state":"AL","long":"-85.77051","city":"Leesburg"},"35972":{"lat":"33.997586","state":"AL","long":"-86.234606","city":"Gallant"},"35961":{"lat":"34.267957","state":"AL","long":"-85.861969","city":"Collinsville"},"35950":{"lat":"34.273859","state":"AL","long":"-86.206447","city":"Albertville"},"35906":{"lat":"33.9427","state":"AL","long":"-86.0675","city":"Gadsden"},"35984":{"lat":"34.587236","state":"AL","long":"-85.577728","city":"Mentone"},"35973":{"lat":"34.357324","state":"AL","long":"-85.558893","city":"Gaylesville"},"35962":{"lat":"34.258784","state":"AL","long":"-86.030575","city":"Crossville"},"35951":{"lat":"34.2675","state":"AL","long":"-86.208889","city":"Albertville"},"35907":{"lat":"33.9045","state":"AL","long":"-86.026","city":"Gadsden"}});