ComSquarepushJsonzips.load_zips({"36480":{"lat":"31.313467","state":"AL","long":"-87.570518","city":"Uriah"},"36458":{"lat":"31.506944","state":"AL","long":"-87.388333","city":"Mexia"},"36436":{"lat":"31.717167","state":"AL","long":"-87.656929","city":"Dickinson"},"36425":{"lat":"31.727324","state":"AL","long":"-87.171912","city":"Beatrice"},"36481":{"lat":"31.73443","state":"AL","long":"-87.416184","city":"Vredenburgh"},"36470":{"lat":"31.513889","state":"AL","long":"-87.493333","city":"Perdue Hill"},"36426":{"lat":"31.118926","state":"AL","long":"-87.067325","city":"Brewton"},"36482":{"lat":"31.639453","state":"AL","long":"-87.656502","city":"Whatley"},"36471":{"lat":"31.589953","state":"AL","long":"-87.259984","city":"Peterman"},"36460":{"lat":"31.51533","state":"AL","long":"-87.340993","city":"Monroeville"},"36449":{"lat":"31.336667","state":"AL","long":"-87.425833","city":"Goodway"},"36427":{"lat":"31.105","state":"AL","long":"-87.072222","city":"Brewton"},"36483":{"lat":"31.148127","state":"AL","long":"-86.56119","city":"Wing"},"36461":{"lat":"31.5277","state":"AL","long":"-87.3247","city":"Monroeville"},"36439":{"lat":"31.427778","state":"AL","long":"-87.341389","city":"Excel"},"36473":{"lat":"31.30169","state":"AL","long":"-87.319739","city":"Range"},"36462":{"lat":"31.519505","state":"AL","long":"-87.322753","city":"Monroeville"},"36451":{"lat":"31.675502","state":"AL","long":"-87.763571","city":"Grove Hill"},"36429":{"lat":"31.2625","state":"AL","long":"-86.771111","city":"Brooklyn"},"36474":{"lat":"31.439931","state":"AL","long":"-86.61209","city":"Red Level"},"36441":{"lat":"31.040233","state":"AL","long":"-87.266365","city":"Flomaton"},"36475":{"lat":"31.425569","state":"AL","long":"-87.172039","city":"Repton"},"36453":{"lat":"31.262118","state":"AL","long":"-86.069532","city":"Kinston"},"36442":{"lat":"31.017194","state":"AL","long":"-86.338528","city":"Florala"},"36420":{"lat":"31.297142","state":"AL","long":"-86.490468","city":"Andalusia"},"36476":{"lat":"31.352778","state":"AL","long":"-86.539167","city":"River Falls"},"36454":{"lat":"31.327261","state":"AL","long":"-87.19671","city":"Lenox"},"36432":{"lat":"31.326113","state":"AL","long":"-87.026754","city":"Castleberry"},"36421":{"lat":"31.306667","state":"AL","long":"-86.483333","city":"Andalusia"},"36477":{"lat":"31.104918","state":"AL","long":"-86.067416","city":"Samson"},"36455":{"lat":"31.010278","state":"AL","long":"-86.349722","city":"Lockhart"},"36444":{"lat":"31.723815","state":"AL","long":"-87.441237","city":"Franklin"},"36467":{"lat":"31.279861","state":"AL","long":"-86.257105","city":"Opp"},"36456":{"lat":"31.54495","state":"AL","long":"-86.735615","city":"Mc Kenzie"},"36445":{"lat":"31.423478","state":"AL","long":"-87.381744","city":"Frisco City"},"36401":{"lat":"31.458009","state":"AL","long":"-86.925771","city":"Burnt Corn"},"36457":{"lat":"31.379722","state":"AL","long":"-87.428333","city":"Megargel"},"36446":{"lat":"31.790947","state":"AL","long":"-87.708065","city":"Fulton"},"36435":{"lat":"31.888851","state":"AL","long":"-87.392558","city":"Coy"}});