ComSquarepushJsonzips.load_zips({"36921":{"lat":"31.93153","state":"AL","long":"-88.31794","city":"Toxey"},"36910":{"lat":"32.244174","state":"AL","long":"-88.233356","city":"Jachin"},"36922":{"lat":"32.334063","state":"AL","long":"-88.297114","city":"Ward"},"36912":{"lat":"32.217722","state":"AL","long":"-88.323419","city":"Lisman"},"36901":{"lat":"32.448889","state":"AL","long":"-88.133611","city":"Bellamy"},"36913":{"lat":"31.930278","state":"AL","long":"-88.458889","city":"Melvin"},"36925":{"lat":"32.472765","state":"AL","long":"-88.268304","city":"York"},"36915":{"lat":"32.012165","state":"AL","long":"-88.345798","city":"Needham"},"36904":{"lat":"32.082906","state":"AL","long":"-88.206391","city":"Butler"},"36916":{"lat":"32.226245","state":"AL","long":"-88.0931","city":"Pennington"},"36907":{"lat":"32.410973","state":"AL","long":"-88.361083","city":"Cuba"},"36919":{"lat":"31.766754","state":"AL","long":"-88.309149","city":"Silas"},"36908":{"lat":"31.866602","state":"AL","long":"-88.326514","city":"Gilbertown"}});