ComSquarepushJsonzips.load_zips({"37385":{"lat":"35.356237","state":"TN","long":"-84.306785","city":"Tellico Plains"},"37301":{"lat":"35.425776","state":"TN","long":"-85.763508","city":"Altamont"},"37322":{"lat":"35.507166","state":"TN","long":"-84.808051","city":"Decatur"},"37343":{"lat":"35.159112","state":"TN","long":"-85.218215","city":"Hixson"},"37364":{"lat":"35.1056","state":"TN","long":"-84.865","city":"Cleveland"},"37302":{"lat":"35.014926","state":"TN","long":"-85.016404","city":"Apison"},"37323":{"lat":"35.1148","state":"TN","long":"-84.8252","city":"Cleveland"},"37365":{"lat":"35.374062","state":"TN","long":"-85.564272","city":"Palmer"},"37387":{"lat":"35.272081","state":"TN","long":"-85.736187","city":"Tracy City"},"37303":{"lat":"35.457389","state":"TN","long":"-84.604261","city":"Athens"},"37324":{"lat":"35.232598","state":"TN","long":"-86.058859","city":"Decherd"},"37345":{"lat":"35.051198","state":"TN","long":"-86.269435","city":"Huntland"},"37366":{"lat":"35.314045","state":"TN","long":"-85.84408","city":"Pelham"},"37388":{"lat":"35.35841","state":"TN","long":"-86.22069","city":"Tullahoma"},"37304":{"lat":"35.382222","state":"TN","long":"-85.108889","city":"Bakewell"},"37325":{"lat":"35.261234","state":"TN","long":"-84.602366","city":"Delano"},"37367":{"lat":"35.640769","state":"TN","long":"-85.207653","city":"Pikeville"},"37389":{"lat":"35.343333","state":"TN","long":"-86.239444","city":"Arnold A F B"},"37326":{"lat":"35.035833","state":"TN","long":"-84.382778","city":"Ducktown"},"37347":{"lat":"35.066603","state":"TN","long":"-85.614737","city":"Jasper"},"37305":{"lat":"35.470371","state":"TN","long":"-85.682128","city":"Beersheba Springs"},"37391":{"lat":"35.108089","state":"TN","long":"-84.354381","city":"Turtletown"},"37348":{"lat":"35.102356","state":"TN","long":"-86.468343","city":"Kelso"},"37370":{"lat":"35.344615","state":"TN","long":"-84.646247","city":"Riceville"},"37369":{"lat":"35.180664","state":"TN","long":"-84.54103","city":"Reliance"},"37306":{"lat":"35.141499","state":"TN","long":"-86.172827","city":"Belvidere"},"37327":{"lat":"35.384175","state":"TN","long":"-85.392513","city":"Dunlap"},"37307":{"lat":"35.172953","state":"TN","long":"-84.654433","city":"Benton"},"37328":{"lat":"35.029496","state":"TN","long":"-86.34811","city":"Elora"},"37350":{"lat":"34.994825","state":"TN","long":"-85.350564","city":"Lookout Mountain"},"37349":{"lat":"35.481667","state":"TN","long":"-86.088611","city":"Manchester"},"37371":{"lat":"35.442778","state":"TN","long":"-84.593056","city":"Athens"},"37308":{"lat":"35.351968","state":"TN","long":"-84.961835","city":"Birchwood"},"37330":{"lat":"35.270508","state":"TN","long":"-86.139561","city":"Estill Springs"},"37329":{"lat":"35.427245","state":"TN","long":"-84.483265","city":"Englewood"},"37351":{"lat":"35.105556","state":"TN","long":"-85.264167","city":"Lupton City"},"37394":{"lat":"35.538333","state":"TN","long":"-85.859167","city":"Viola"},"37373":{"lat":"35.385806","state":"TN","long":"-85.102323","city":"Sale Creek"},"37310":{"lat":"35.255644","state":"TN","long":"-84.766639","city":"Charleston"},"37309":{"lat":"35.374614","state":"TN","long":"-84.738105","city":"Calhoun"},"37331":{"lat":"35.331443","state":"TN","long":"-84.528305","city":"Etowah"},"37352":{"lat":"35.270642","state":"TN","long":"-86.372019","city":"Lynchburg"},"37374":{"lat":"35.163396","state":"TN","long":"-85.637084","city":"Sequatchie"},"37311":{"lat":"35.131257","state":"TN","long":"-84.875006","city":"Cleveland"},"37332":{"lat":"35.615346","state":"TN","long":"-85.022773","city":"Evensville"},"37353":{"lat":"35.086902","state":"TN","long":"-84.989198","city":"Mc Donald"},"37396":{"lat":"35.066289","state":"TN","long":"-85.398499","city":"Whiteside"},"37375":{"lat":"35.201101","state":"TN","long":"-85.91259","city":"Sewanee"},"37312":{"lat":"35.202309","state":"TN","long":"-84.847557","city":"Cleveland"},"37333":{"lat":"35.144894","state":"TN","long":"-84.320904","city":"Farner"},"37354":{"lat":"35.500917","state":"TN","long":"-84.351899","city":"Madisonville"},"37397":{"lat":"35.197228","state":"TN","long":"-85.501112","city":"Whitwell"},"37376":{"lat":"35.099164","state":"TN","long":"-85.923841","city":"Sherwood"},"37313":{"lat":"35.386197","state":"TN","long":"-85.655097","city":"Coalmont"},"37334":{"lat":"35.152678","state":"TN","long":"-86.566448","city":"Fayetteville"},"37355":{"lat":"35.495846","state":"TN","long":"-86.081568","city":"Manchester"},"37398":{"lat":"35.186398","state":"TN","long":"-86.113038","city":"Winchester"},"37377":{"lat":"35.149424","state":"TN","long":"-85.336243","city":"Signal Mountain"},"37314":{"lat":"35.265556","state":"TN","long":"-84.285833","city":"Cokercreek"},"37335":{"lat":"35.042782","state":"TN","long":"-86.497974","city":"Flintville"},"37356":{"lat":"35.240172","state":"TN","long":"-85.822795","city":"Monteagle"},"37378":{"lat":"35.640278","state":"TN","long":"-85.836667","city":"Smartt"},"37315":{"lat":"35.053056","state":"TN","long":"-85.050278","city":"Collegedale"},"37336":{"lat":"35.293241","state":"TN","long":"-84.912684","city":"Georgetown"},"37357":{"lat":"35.60002","state":"TN","long":"-85.889895","city":"Morrison"},"37380":{"lat":"35.028046","state":"TN","long":"-85.722498","city":"South Pittsburg"},"37379":{"lat":"35.252686","state":"TN","long":"-85.163009","city":"Soddy Daisy"},"37337":{"lat":"35.760843","state":"TN","long":"-84.861464","city":"Grandview"},"37316":{"lat":"35.004444","state":"TN","long":"-84.729444","city":"Conasauga"},"37381":{"lat":"35.682072","state":"TN","long":"-84.841968","city":"Spring City"},"37359":{"lat":"35.19413","state":"TN","long":"-86.421685","city":"Mulberry"},"37317":{"lat":"35.024987","state":"TN","long":"-84.383964","city":"Copperhill"},"37338":{"lat":"35.44842","state":"TN","long":"-85.17904","city":"Graysville"},"37360":{"lat":"35.429628","state":"TN","long":"-86.255712","city":"Normandy"},"37382":{"lat":"35.559444","state":"TN","long":"-85.9925","city":"Summitville"},"37318":{"lat":"35.170121","state":"TN","long":"-86.019007","city":"Cowan"},"37340":{"lat":"35.017834","state":"TN","long":"-85.511568","city":"Guild"},"37339":{"lat":"35.363464","state":"TN","long":"-85.669773","city":"Gruetli Laager"},"37361":{"lat":"35.102473","state":"TN","long":"-84.713565","city":"Ocoee"},"37383":{"lat":"35.203056","state":"TN","long":"-85.921111","city":"Sewanee"},"37320":{"lat":"35.1594","state":"TN","long":"-84.8766","city":"Cleveland"},"37341":{"lat":"35.167898","state":"TN","long":"-85.094532","city":"Harrison"},"37362":{"lat":"35.03654","state":"TN","long":"-84.721877","city":"Oldfort"},"37384":{"lat":"35.252778","state":"TN","long":"-85.173056","city":"Soddy Daisy"},"37321":{"lat":"35.500186","state":"TN","long":"-85.013455","city":"Dayton"},"37342":{"lat":"35.369933","state":"TN","long":"-85.972422","city":"Hillsboro"},"37363":{"lat":"35.078104","state":"TN","long":"-85.063495","city":"Ooltewah"}});