ComSquarepushJsonzips.load_zips({"37816":{"lat":"36.21407","state":"TN","long":"-83.29517","city":"Morristown"},"37880":{"lat":"35.686175","state":"TN","long":"-84.654848","city":"Ten Mile"},"37879":{"lat":"36.471012","state":"TN","long":"-83.555219","city":"Tazewell"},"37860":{"lat":"36.256684","state":"TN","long":"-83.19138","city":"Russellville"},"37881":{"lat":"36.391687","state":"TN","long":"-83.365973","city":"Thorn Hill"},"37818":{"lat":"36.183883","state":"TN","long":"-82.967399","city":"Mosheim"},"37840":{"lat":"36.036616","state":"TN","long":"-84.348632","city":"Oliver Springs"},"37861":{"lat":"36.250078","state":"TN","long":"-83.512468","city":"Rutledge"},"37882":{"lat":"35.678385","state":"TN","long":"-83.757157","city":"Townsend"},"37820":{"lat":"36.081037","state":"TN","long":"-83.567253","city":"New Market"},"37819":{"lat":"36.542768","state":"TN","long":"-84.179848","city":"Newcomb"},"37841":{"lat":"36.505259","state":"TN","long":"-84.529319","city":"Oneida"},"37862":{"lat":"35.845192","state":"TN","long":"-83.538621","city":"Sevierville"},"37821":{"lat":"35.954431","state":"TN","long":"-83.202749","city":"Newport"},"37863":{"lat":"35.792222","state":"TN","long":"-83.563821","city":"Pigeon Forge"},"37843":{"lat":"35.998297","state":"TN","long":"-83.073627","city":"Parrottsville"},"37864":{"lat":"35.868","state":"TN","long":"-83.5619","city":"Sevierville"},"37885":{"lat":"35.535364","state":"TN","long":"-84.177829","city":"Vonore"},"37801":{"lat":"35.782449","state":"TN","long":"-83.914541","city":"Maryville"},"37822":{"lat":"35.966944","state":"TN","long":"-83.187778","city":"Newport"},"37865":{"lat":"35.869984","state":"TN","long":"-83.749511","city":"Seymour"},"37886":{"lat":"35.753311","state":"TN","long":"-83.824307","city":"Walland"},"37802":{"lat":"35.6877","state":"TN","long":"-84.0203","city":"Maryville"},"37887":{"lat":"36.101609","state":"TN","long":"-84.565188","city":"Wartburg"},"37803":{"lat":"35.7","state":"TN","long":"-83.9745","city":"Maryville"},"37824":{"lat":"36.4425","state":"TN","long":"-83.599722","city":"New Tazewell"},"37845":{"lat":"36.055903","state":"TN","long":"-84.439914","city":"Petros"},"37866":{"lat":"36.368498","state":"TN","long":"-83.81268","city":"Sharps Chapel"},"37804":{"lat":"35.715659","state":"TN","long":"-84.004491","city":"Maryville"},"37825":{"lat":"36.424475","state":"TN","long":"-83.646949","city":"New Tazewell"},"37846":{"lat":"35.664214","state":"TN","long":"-84.450221","city":"Philadelphia"},"37867":{"lat":"36.580556","state":"TN","long":"-83.638889","city":"Shawanee"},"37888":{"lat":"36.310649","state":"TN","long":"-83.593685","city":"Washburn"},"37826":{"lat":"35.581924","state":"TN","long":"-84.57215","city":"Niota"},"37847":{"lat":"36.469465","state":"TN","long":"-84.290672","city":"Pioneer"},"37868":{"lat":"35.7883","state":"TN","long":"-83.5544","city":"Pigeon Forge"},"37890":{"lat":"36.090299","state":"TN","long":"-83.287921","city":"White Pine"},"37806":{"lat":"36.084421","state":"TN","long":"-83.741101","city":"Mascot"},"37848":{"lat":"36.254899","state":"TN","long":"-83.672921","city":"Powder Springs"},"37870":{"lat":"36.479723","state":"TN","long":"-83.813495","city":"Speedwell"},"37869":{"lat":"36.527515","state":"TN","long":"-83.252892","city":"Sneedville"},"37891":{"lat":"36.262125","state":"TN","long":"-83.145844","city":"Whitesburg"},"37892":{"lat":"36.559825","state":"TN","long":"-84.434026","city":"Winfield"},"37807":{"lat":"36.234274","state":"TN","long":"-83.840261","city":"Maynardville"},"37828":{"lat":"36.195556","state":"TN","long":"-84.068056","city":"Norris"},"37849":{"lat":"36.043454","state":"TN","long":"-84.039987","city":"Powell"},"37871":{"lat":"36.041462","state":"TN","long":"-83.677724","city":"Strawberry Plains"},"37830":{"lat":"36.01588","state":"TN","long":"-84.262297","city":"Oak Ridge"},"37829":{"lat":"36.009962","state":"TN","long":"-84.575295","city":"Oakdale"},"37851":{"lat":"36.586111","state":"TN","long":"-83.901111","city":"Pruden"},"37872":{"lat":"36.262234","state":"TN","long":"-84.69842","city":"Sunbright"},"37810":{"lat":"36.186919","state":"TN","long":"-83.090185","city":"Mohawk"},"37809":{"lat":"36.150995","state":"TN","long":"-83.028141","city":"Midway"},"37831":{"lat":"36.010278","state":"TN","long":"-84.269722","city":"Oak Ridge"},"37852":{"lat":"36.352693","state":"TN","long":"-84.590417","city":"Robbins"},"37873":{"lat":"36.474066","state":"TN","long":"-82.830597","city":"Surgoinsville"},"37853":{"lat":"35.830519","state":"TN","long":"-83.941202","city":"Rockford"},"37874":{"lat":"35.595703","state":"TN","long":"-84.430424","city":"Sweetwater"},"37811":{"lat":"36.362082","state":"TN","long":"-83.209499","city":"Mooresburg"},"37854":{"lat":"35.858677","state":"TN","long":"-84.684188","city":"Rockwood"},"37876":{"lat":"35.857","state":"TN","long":"-83.4989","city":"Sevierville"},"37813":{"lat":"36.195672","state":"TN","long":"-83.275519","city":"Morristown"},"37814":{"lat":"36.224782","state":"TN","long":"-83.31185","city":"Morristown"},"37877":{"lat":"36.159958","state":"TN","long":"-83.412864","city":"Talbott"},"37815":{"lat":"36.2143","state":"TN","long":"-83.29501","city":"Morristown"},"37857":{"lat":"36.416196","state":"TN","long":"-83.010786","city":"Rogersville"},"37878":{"lat":"35.583663","state":"TN","long":"-84.003338","city":"Tallassee"}});