ComSquarepushJsonzips.load_zips({"38579":{"lat":"35.825379","state":"TN","long":"-85.538189","city":"Quebeck"},"38568":{"lat":"36.391492","state":"TN","long":"-85.436918","city":"Hilham"},"38557":{"lat":"35.9488","state":"TN","long":"-85.0269","city":"Crossville"},"38502":{"lat":"36.2139","state":"TN","long":"-85.5332","city":"Cookeville"},"38580":{"lat":"36.301933","state":"TN","long":"-85.380572","city":"Rickman"},"38569":{"lat":"36.09542","state":"TN","long":"-85.855095","city":"Lancaster"},"38558":{"lat":"35.9956","state":"TN","long":"-84.8775","city":"Crossville"},"38547":{"lat":"36.110673","state":"TN","long":"-86.020344","city":"Brush Creek"},"38503":{"lat":"36.1627","state":"TN","long":"-85.5016","city":"Cookeville"},"38581":{"lat":"35.743813","state":"TN","long":"-85.635156","city":"Rock Island"},"38570":{"lat":"36.389012","state":"TN","long":"-85.320523","city":"Livingston"},"38559":{"lat":"35.872206","state":"TN","long":"-85.498997","city":"Doyle"},"38548":{"lat":"36.183311","state":"TN","long":"-85.758879","city":"Buffalo Valley"},"38504":{"lat":"36.374889","state":"TN","long":"-84.850784","city":"Allardt"},"38582":{"lat":"36.100562","state":"TN","long":"-85.733801","city":"Silver Point"},"38571":{"lat":"36.0321","state":"TN","long":"-85.0426","city":"Crossville"},"38560":{"lat":"36.235468","state":"TN","long":"-85.880843","city":"Elmwood"},"38549":{"lat":"36.570869","state":"TN","long":"-85.145647","city":"Byrdstown"},"38505":{"lat":"36.1729","state":"TN","long":"-85.5027","city":"Cookeville"},"38583":{"lat":"35.954664","state":"TN","long":"-85.478582","city":"Sparta"},"38572":{"lat":"35.8616","state":"TN","long":"-85.1005","city":"Crossville"},"38550":{"lat":"35.770833","state":"TN","long":"-85.628611","city":"Campaign"},"38506":{"lat":"36.1677","state":"TN","long":"-85.4649","city":"Cookeville"},"38573":{"lat":"36.464201","state":"TN","long":"-85.216385","city":"Monroe"},"38562":{"lat":"36.343767","state":"TN","long":"-85.635509","city":"Gainesboro"},"38551":{"lat":"36.547491","state":"TN","long":"-85.496551","city":"Celina"},"38585":{"lat":"35.727871","state":"TN","long":"-85.428661","city":"Spencer"},"38574":{"lat":"36.150862","state":"TN","long":"-85.254198","city":"Monterey"},"38563":{"lat":"36.184317","state":"TN","long":"-86.000818","city":"Gordonsville"},"38552":{"lat":"36.192877","state":"TN","long":"-85.837402","city":"Chestnut Mound"},"38541":{"lat":"36.497002","state":"TN","long":"-85.319744","city":"Allons"},"38575":{"lat":"36.596623","state":"TN","long":"-85.677235","city":"Moss"},"38564":{"lat":"36.276847","state":"TN","long":"-85.747533","city":"Granville"},"38553":{"lat":"36.211188","state":"TN","long":"-84.977737","city":"Clarkrange"},"38542":{"lat":"36.366838","state":"TN","long":"-85.176084","city":"Allred"},"38587":{"lat":"35.869543","state":"TN","long":"-85.618509","city":"Walling"},"38565":{"lat":"36.243353","state":"TN","long":"-85.01549","city":"Grimsley"},"38554":{"lat":"36.23611","state":"TN","long":"-85.168765","city":"Crawford"},"38543":{"lat":"36.380324","state":"TN","long":"-85.152153","city":"Alpine"},"38588":{"lat":"36.515839","state":"TN","long":"-85.689873","city":"Whitleyville"},"38577":{"lat":"36.578066","state":"TN","long":"-85.038385","city":"Pall Mall"},"38555":{"lat":"35.944041","state":"TN","long":"-85.017171","city":"Crossville"},"38544":{"lat":"36.124917","state":"TN","long":"-85.637766","city":"Baxter"},"38589":{"lat":"36.230526","state":"TN","long":"-85.074717","city":"Wilder"},"38578":{"lat":"36.01121","state":"TN","long":"-85.16694","city":"Pleasant Hill"},"38567":{"lat":"36.119653","state":"TN","long":"-85.902297","city":"Hickman"},"38556":{"lat":"36.424471","state":"TN","long":"-84.935721","city":"Jamestown"},"38545":{"lat":"36.219454","state":"TN","long":"-85.64786","city":"Bloomington Springs"},"38501":{"lat":"36.174261","state":"TN","long":"-85.49531","city":"Cookeville"}});