ComSquarepushJsonzips.load_zips({"40077":{"lat":"38.492068","state":"KY","long":"-85.45242","city":"Westport"},"40066":{"lat":"38.211944","state":"KY","long":"-85.223611","city":"Shelbyville"},"40055":{"lat":"38.480918","state":"KY","long":"-85.317019","city":"Pendleton"},"40033":{"lat":"37.565834","state":"KY","long":"-85.266811","city":"Lebanon"},"40022":{"lat":"38.156064","state":"KY","long":"-85.347573","city":"Finchville"},"40011":{"lat":"38.523083","state":"KY","long":"-85.161094","city":"Campbellsburg"},"40078":{"lat":"37.837333","state":"KY","long":"-85.136187","city":"Willisburg"},"40067":{"lat":"38.231186","state":"KY","long":"-85.354797","city":"Simpsonville"},"40056":{"lat":"38.303945","state":"KY","long":"-85.483377","city":"Pewee Valley"},"40045":{"lat":"38.692489","state":"KY","long":"-85.36593","city":"Milton"},"40023":{"lat":"38.165154","state":"KY","long":"-85.428222","city":"Fisherville"},"40012":{"lat":"37.902541","state":"KY","long":"-85.201472","city":"Chaplin"},"40068":{"lat":"38.393308","state":"KY","long":"-85.265579","city":"Smithfield"},"40057":{"lat":"38.358718","state":"KY","long":"-85.087198","city":"Pleasureville"},"40046":{"lat":"38.035238","state":"KY","long":"-85.164114","city":"Mount Eden"},"40013":{"lat":"37.896386","state":"KY","long":"-85.484159","city":"Coxs Creek"},"40069":{"lat":"37.701352","state":"KY","long":"-85.240473","city":"Springfield"},"40058":{"lat":"38.555278","state":"KY","long":"-85.080278","city":"Port Royal"},"40047":{"lat":"38.045206","state":"KY","long":"-85.558631","city":"Mount Washington"},"40036":{"lat":"38.421874","state":"KY","long":"-84.958635","city":"Lockport"},"40025":{"lat":"38.308333","state":"KY","long":"-85.650278","city":"Glenview"},"40014":{"lat":"38.332637","state":"KY","long":"-85.461038","city":"Crestwood"},"40003":{"lat":"38.260811","state":"KY","long":"-85.065142","city":"Bagdad"},"40070":{"lat":"38.492062","state":"KY","long":"-85.252021","city":"Sulphur"},"40059":{"lat":"38.355987","state":"KY","long":"-85.608287","city":"Prospect"},"40048":{"lat":"37.848056","state":"KY","long":"-85.472778","city":"Nazareth"},"40037":{"lat":"37.642112","state":"KY","long":"-85.411297","city":"Loretto"},"40026":{"lat":"38.411294","state":"KY","long":"-85.570816","city":"Goshen"},"40004":{"lat":"37.80835","state":"KY","long":"-85.461343","city":"Bardstown"},"40071":{"lat":"38.047054","state":"KY","long":"-85.382861","city":"Taylorsville"},"40060":{"lat":"37.537959","state":"KY","long":"-85.43003","city":"Raywick"},"40049":{"lat":"37.664167","state":"KY","long":"-85.399444","city":"Nerinx"},"40027":{"lat":"38.3275","state":"KY","long":"-85.627778","city":"Harrods Creek"},"40061":{"lat":"37.699126","state":"KY","long":"-85.27106","city":"Saint Catharine"},"40050":{"lat":"38.437368","state":"KY","long":"-85.175567","city":"New Castle"},"40006":{"lat":"38.586363","state":"KY","long":"-85.313331","city":"Bedford"},"40062":{"lat":"37.628644","state":"KY","long":"-85.464208","city":"Saint Francis"},"40051":{"lat":"37.666327","state":"KY","long":"-85.557694","city":"New Haven"},"40040":{"lat":"37.724703","state":"KY","long":"-85.085201","city":"Mackville"},"40018":{"lat":"38.233056","state":"KY","long":"-85.455833","city":"Eastwood"},"40007":{"lat":"38.402433","state":"KY","long":"-85.064874","city":"Bethlehem"},"40063":{"lat":"37.580556","state":"KY","long":"-85.346389","city":"Saint Mary"},"40052":{"lat":"37.631944","state":"KY","long":"-85.508333","city":"New Hope"},"40041":{"lat":"38.263889","state":"KY","long":"-85.656111","city":"Masonic Home"},"40019":{"lat":"38.369606","state":"KY","long":"-85.17816","city":"Eminence"},"40008":{"lat":"37.907979","state":"KY","long":"-85.286209","city":"Bloomfield"},"40075":{"lat":"38.550361","state":"KY","long":"-85.132512","city":"Turners Station"},"40031":{"lat":"38.402897","state":"KY","long":"-85.392819","city":"La Grange"},"40020":{"lat":"37.933611","state":"KY","long":"-85.383611","city":"Fairfield"},"40009":{"lat":"37.46622","state":"KY","long":"-85.143599","city":"Bradfordsville"},"40076":{"lat":"38.105445","state":"KY","long":"-85.12883","city":"Waddy"},"40065":{"lat":"38.216222","state":"KY","long":"-85.224271","city":"Shelbyville"},"40032":{"lat":"38.4075","state":"KY","long":"-85.378889","city":"La Grange"},"40010":{"lat":"38.363008","state":"KY","long":"-85.47406","city":"Buckner"}});