ComSquarepushJsonzips.load_zips({"40385":{"lat":"37.766833","state":"KY","long":"-84.117061","city":"Waco"},"40374":{"lat":"38.214742","state":"KY","long":"-83.893199","city":"Sharpsburg"},"40363":{"lat":"38.548056","state":"KY","long":"-84.999722","city":"Perry Park"},"40330":{"lat":"37.769989","state":"KY","long":"-84.84675","city":"Harrodsburg"},"40319":{"lat":"38.142778","state":"KY","long":"-83.546111","city":"Farmers"},"40386":{"lat":"38.0233","state":"KY","long":"-84.747","city":"Versailles"},"40353":{"lat":"38.054822","state":"KY","long":"-83.938774","city":"Mount Sterling"},"40342":{"lat":"38.018853","state":"KY","long":"-84.929938","city":"Lawrenceburg"},"40387":{"lat":"37.965353","state":"KY","long":"-83.47305","city":"Wellington"},"40376":{"lat":"37.788958","state":"KY","long":"-83.684852","city":"Slade"},"40310":{"lat":"37.751667","state":"KY","long":"-84.768333","city":"Burgin"},"40366":{"lat":"38.085556","state":"KY","long":"-83.753333","city":"Preston"},"40355":{"lat":"38.624556","state":"KY","long":"-84.901064","city":"New Liberty"},"40322":{"lat":"37.946031","state":"KY","long":"-83.642405","city":"Frenchburg"},"40311":{"lat":"38.321233","state":"KY","long":"-84.027902","city":"Carlisle"},"40356":{"lat":"37.880794","state":"KY","long":"-84.56459","city":"Nicholasville"},"40334":{"lat":"38.015833","state":"KY","long":"-83.773056","city":"Hope"},"40312":{"lat":"37.860571","state":"KY","long":"-83.934693","city":"Clay City"},"40390":{"lat":"37.862141","state":"KY","long":"-84.662079","city":"Wilmore"},"40379":{"lat":"38.288802","state":"KY","long":"-84.681824","city":"Stamping Ground"},"40357":{"lat":"38.145","state":"KY","long":"-84.111389","city":"North Middletown"},"40346":{"lat":"37.928382","state":"KY","long":"-83.725343","city":"Means"},"40324":{"lat":"38.211712","state":"KY","long":"-84.556179","city":"Georgetown"},"40313":{"lat":"38.143992","state":"KY","long":"-83.327289","city":"Clearfield"},"40391":{"lat":"37.987161","state":"KY","long":"-84.178894","city":"Winchester"},"40380":{"lat":"37.842703","state":"KY","long":"-83.829947","city":"Stanton"},"40358":{"lat":"38.061089","state":"KY","long":"-83.758456","city":"Olympia"},"40347":{"lat":"38.148741","state":"KY","long":"-84.692845","city":"Midway"},"40336":{"lat":"37.705051","state":"KY","long":"-83.996172","city":"Irvine"},"40392":{"lat":"37.99","state":"KY","long":"-84.179722","city":"Winchester"},"40370":{"lat":"38.390816","state":"KY","long":"-84.538424","city":"Sadieville"},"40359":{"lat":"38.4986","state":"KY","long":"-84.808632","city":"Owenton"},"40348":{"lat":"38.301944","state":"KY","long":"-84.1475","city":"Millersburg"},"40337":{"lat":"37.964004","state":"KY","long":"-83.855778","city":"Jeffersonville"},"40371":{"lat":"38.104031","state":"KY","long":"-83.631619","city":"Salt Lick"},"40360":{"lat":"38.153196","state":"KY","long":"-83.756439","city":"Owingsville"},"40316":{"lat":"37.919068","state":"KY","long":"-83.513136","city":"Denniston"},"40383":{"lat":"38.041301","state":"KY","long":"-84.728683","city":"Versailles"},"40372":{"lat":"37.915078","state":"KY","long":"-84.884546","city":"Salvisa"},"40361":{"lat":"38.208293","state":"KY","long":"-84.244987","city":"Paris"},"40350":{"lat":"38.292627","state":"KY","long":"-83.892889","city":"Moorefield"},"40339":{"lat":"37.941057","state":"KY","long":"-84.651924","city":"Keene"},"40328":{"lat":"37.575802","state":"KY","long":"-85.082403","city":"Gravel Switch"},"40317":{"lat":"38.182778","state":"KY","long":"-83.275833","city":"Elliottville"},"40384":{"lat":"38.0526","state":"KY","long":"-84.7272","city":"Versailles"},"40362":{"lat":"38.209722","state":"KY","long":"-84.253056","city":"Paris"},"40351":{"lat":"38.199047","state":"KY","long":"-83.443645","city":"Morehead"},"40340":{"lat":"37.880556","state":"KY","long":"-84.573056","city":"Nicholasville"}});