ComSquarepushJsonzips.load_zips({"40759":{"lat":"36.824216","state":"KY","long":"-84.104048","city":"Rockholds"},"40737":{"lat":"37.015604","state":"KY","long":"-84.143606","city":"Keavy"},"40771":{"lat":"36.918793","state":"KY","long":"-84.082743","city":"Woodbine"},"40740":{"lat":"37.002295","state":"KY","long":"-84.08071","city":"Lily"},"40763":{"lat":"36.720352","state":"KY","long":"-83.964192","city":"Siler"},"40741":{"lat":"37.101605","state":"KY","long":"-84.097498","city":"London"},"40730":{"lat":"36.704444","state":"KY","long":"-84.143333","city":"Emlyn"},"40729":{"lat":"37.190779","state":"KY","long":"-84.145676","city":"East Bernstadt"},"40742":{"lat":"37.12902","state":"KY","long":"-84.08374","city":"London"},"40754":{"lat":"36.663711","state":"KY","long":"-84.111113","city":"Nevisdale"},"40743":{"lat":"37.12882","state":"KY","long":"-84.08383","city":"London"},"40755":{"lat":"37.16","state":"KY","long":"-84.104167","city":"Pittsburg"},"40744":{"lat":"37.0643","state":"KY","long":"-84.0687","city":"London"},"40745":{"lat":"37.12921","state":"KY","long":"-84.0838","city":"London"},"40734":{"lat":"36.946743","state":"KY","long":"-83.982799","city":"Gray"},"40701":{"lat":"36.934429","state":"KY","long":"-84.10208","city":"Corbin"},"40724":{"lat":"37.070874","state":"KY","long":"-83.976117","city":"Bush"},"40702":{"lat":"36.948611","state":"KY","long":"-84.096944","city":"Corbin"},"40769":{"lat":"36.735535","state":"KY","long":"-84.143592","city":"Williamsburg"}});