ComSquarepushJsonzips.load_zips({"42759":{"lat":"36.827778","state":"KY","long":"-85.506667","city":"Marrowbone"},"42748":{"lat":"37.574566","state":"KY","long":"-85.723206","city":"Hodgenville"},"42726":{"lat":"37.427896","state":"KY","long":"-86.160219","city":"Clarkson"},"42715":{"lat":"36.981043","state":"KY","long":"-85.407822","city":"Breeding"},"42782":{"lat":"37.34186","state":"KY","long":"-85.619376","city":"Summersville"},"42749":{"lat":"37.184939","state":"KY","long":"-85.878549","city":"Horse Cave"},"42716":{"lat":"37.47864","state":"KY","long":"-85.643411","city":"Buffalo"},"42728":{"lat":"37.116408","state":"KY","long":"-85.269265","city":"Columbia"},"42717":{"lat":"36.806791","state":"KY","long":"-85.397028","city":"Burkesville"},"42784":{"lat":"37.456802","state":"KY","long":"-85.908619","city":"Upton"},"42762":{"lat":"37.460879","state":"KY","long":"-86.379821","city":"Millwood"},"42740":{"lat":"37.603398","state":"KY","long":"-85.892101","city":"Glendale"},"42741":{"lat":"37.018195","state":"KY","long":"-85.240117","city":"Glens Fork"},"42729":{"lat":"37.314855","state":"KY","long":"-86.08132","city":"Cub Run"},"42718":{"lat":"37.346618","state":"KY","long":"-85.350755","city":"Campbellsville"},"42764":{"lat":"37.453408","state":"KY","long":"-85.631381","city":"Mount Sherman"},"42753":{"lat":"37.231886","state":"KY","long":"-85.112844","city":"Knifley"},"42742":{"lat":"37.054438","state":"KY","long":"-85.42753","city":"Gradyville"},"42731":{"lat":"36.891998","state":"KY","long":"-85.568281","city":"Dubre"},"42720":{"lat":"37.180278","state":"KY","long":"-85.319722","city":"Cane Valley"},"42719":{"lat":"37.343333","state":"KY","long":"-85.341944","city":"Campbellsville"},"42776":{"lat":"37.52207","state":"KY","long":"-85.922969","city":"Sonora"},"42765":{"lat":"37.289812","state":"KY","long":"-85.920141","city":"Munfordville"},"42754":{"lat":"37.493098","state":"KY","long":"-86.30371","city":"Leitchfield"},"42743":{"lat":"37.243009","state":"KY","long":"-85.523639","city":"Greensburg"},"42732":{"lat":"37.61478","state":"KY","long":"-86.119153","city":"Eastview"},"42721":{"lat":"37.422168","state":"KY","long":"-86.470207","city":"Caneyville"},"42788":{"lat":"37.543765","state":"KY","long":"-86.039519","city":"White Mills"},"42755":{"lat":"37.48","state":"KY","long":"-86.293889","city":"Leitchfield"},"42733":{"lat":"37.339287","state":"KY","long":"-85.191764","city":"Elk Horn"},"42722":{"lat":"37.269562","state":"KY","long":"-85.720292","city":"Canmer"},"42712":{"lat":"37.527801","state":"KY","long":"-86.139498","city":"Big Clifty"},"42701":{"lat":"37.706973","state":"KY","long":"-85.858977","city":"Elizabethtown"},"42757":{"lat":"37.416464","state":"KY","long":"-85.730823","city":"Magnolia"},"42746":{"lat":"37.224905","state":"KY","long":"-85.754174","city":"Hardyville"},"42724":{"lat":"37.660339","state":"KY","long":"-86.006046","city":"Cecilia"},"42713":{"lat":"37.374141","state":"KY","long":"-85.895996","city":"Bonnieville"},"42702":{"lat":"37.698889","state":"KY","long":"-85.832222","city":"Elizabethtown"},"42758":{"lat":"37.3725","state":"KY","long":"-85.196667","city":"Mannsville"}});