ComSquarepushJsonzips.load_zips({"43467":{"lat":"41.243889","state":"OH","long":"-83.491389","city":"West Millgrove"},"43456":{"lat":"41.651356","state":"OH","long":"-82.822593","city":"Put In Bay"},"43445":{"lat":"41.596249","state":"OH","long":"-83.345536","city":"Martin"},"43434":{"lat":"41.693333","state":"OH","long":"-83.444444","city":"Harbor View"},"43412":{"lat":"41.647736","state":"OH","long":"-83.285825","city":"Curtice"},"43468":{"lat":"41.603611","state":"OH","long":"-83.34","city":"Williston"},"43457":{"lat":"41.270639","state":"OH","long":"-83.43259","city":"Risingsun"},"43446":{"lat":"41.678889","state":"OH","long":"-82.812222","city":"Middle Bass"},"43435":{"lat":"41.318005","state":"OH","long":"-83.323184","city":"Helena"},"43413":{"lat":"41.247024","state":"OH","long":"-83.614151","city":"Cygnet"},"43402":{"lat":"41.381513","state":"OH","long":"-83.650749","city":"Bowling Green"},"43469":{"lat":"41.451206","state":"OH","long":"-83.364643","city":"Woodville"},"43458":{"lat":"41.533333","state":"OH","long":"-83.2125","city":"Rocky Ridge"},"43447":{"lat":"41.56106","state":"OH","long":"-83.438083","city":"Millbury"},"43436":{"lat":"41.713668","state":"OH","long":"-82.819275","city":"Isle Saint George"},"43414":{"lat":"41.458056","state":"OH","long":"-83.610278","city":"Dunbridge"},"43403":{"lat":"41.374722","state":"OH","long":"-83.651389","city":"Bowling Green"},"43437":{"lat":"41.253889","state":"OH","long":"-83.604444","city":"Jerry City"},"43460":{"lat":"41.604908","state":"OH","long":"-83.563793","city":"Rossford"},"43449":{"lat":"41.523556","state":"OH","long":"-83.127764","city":"Oak Harbor"},"43438":{"lat":"41.600755","state":"OH","long":"-82.706811","city":"Kelleys Island"},"43416":{"lat":"41.468144","state":"OH","long":"-83.27673","city":"Elmore"},"43450":{"lat":"41.402258","state":"OH","long":"-83.473642","city":"Pemberville"},"43439":{"lat":"41.527846","state":"OH","long":"-83.024004","city":"Lacarne"},"43406":{"lat":"41.329789","state":"OH","long":"-83.4456","city":"Bradner"},"43462":{"lat":"41.296734","state":"OH","long":"-83.683212","city":"Rudolph"},"43451":{"lat":"41.312702","state":"OH","long":"-83.614299","city":"Portage"},"43440":{"lat":"41.52913","state":"OH","long":"-82.771392","city":"Lakeside Marblehead"},"43407":{"lat":"41.267986","state":"OH","long":"-83.247455","city":"Burgoon"},"43463":{"lat":"41.510278","state":"OH","long":"-83.507222","city":"Stony Ridge"},"43452":{"lat":"41.521535","state":"OH","long":"-82.909368","city":"Port Clinton"},"43441":{"lat":"41.495833","state":"OH","long":"-83.474167","city":"Lemoyne"},"43430":{"lat":"41.530005","state":"OH","long":"-83.358984","city":"Genoa"},"43408":{"lat":"41.563333","state":"OH","long":"-83.361944","city":"Clay Center"},"43464":{"lat":"41.39099","state":"OH","long":"-82.898953","city":"Vickery"},"43442":{"lat":"41.414747","state":"OH","long":"-83.213474","city":"Lindsey"},"43431":{"lat":"41.380474","state":"OH","long":"-83.335762","city":"Gibsonburg"},"43420":{"lat":"41.349792","state":"OH","long":"-83.118095","city":"Fremont"},"43465":{"lat":"41.586067","state":"OH","long":"-83.493008","city":"Walbridge"},"43443":{"lat":"41.451669","state":"OH","long":"-83.467396","city":"Luckey"},"43432":{"lat":"41.527136","state":"OH","long":"-83.261135","city":"Graytown"},"43410":{"lat":"41.302397","state":"OH","long":"-82.991849","city":"Clyde"},"43466":{"lat":"41.299312","state":"OH","long":"-83.470065","city":"Wayne"},"43433":{"lat":"41.493333","state":"OH","long":"-82.875833","city":"Gypsum"}});