ComSquarepushJsonzips.load_zips({"43566":{"lat":"41.502248","state":"OH","long":"-83.733142","city":"Waterville"},"43555":{"lat":"41.437778","state":"OH","long":"-84.2575","city":"Ridgeville Corners"},"43533":{"lat":"41.690546","state":"OH","long":"-84.062351","city":"Lyons"},"43522":{"lat":"41.437855","state":"OH","long":"-83.855246","city":"Grand Rapids"},"43511":{"lat":"41.295318","state":"OH","long":"-83.834919","city":"Custar"},"43567":{"lat":"41.566796","state":"OH","long":"-84.153745","city":"Wauseon"},"43556":{"lat":"41.294593","state":"OH","long":"-84.541674","city":"Sherwood"},"43545":{"lat":"41.390969","state":"OH","long":"-84.143271","city":"Napoleon"},"43534":{"lat":"41.377309","state":"OH","long":"-83.942482","city":"Mc Clure"},"43523":{"lat":"41.341667","state":"OH","long":"-83.999722","city":"Grelton"},"43512":{"lat":"41.279858","state":"OH","long":"-84.362583","city":"Defiance"},"43501":{"lat":"41.662489","state":"OH","long":"-84.435533","city":"Alvordton"},"43557":{"lat":"41.486123","state":"OH","long":"-84.408914","city":"Stryker"},"43535":{"lat":"41.308425","state":"OH","long":"-84.045731","city":"Malinta"},"43524":{"lat":"41.212874","state":"OH","long":"-84.071989","city":"Hamler"},"43502":{"lat":"41.533255","state":"OH","long":"-84.304833","city":"Archbold"},"43569":{"lat":"41.351593","state":"OH","long":"-83.797336","city":"Weston"},"43558":{"lat":"41.594497","state":"OH","long":"-83.871821","city":"Swanton"},"43547":{"lat":"41.492778","state":"OH","long":"-83.873333","city":"Neapolis"},"43536":{"lat":"41.291669","state":"OH","long":"-84.62778","city":"Mark Center"},"43525":{"lat":"41.465159","state":"OH","long":"-83.705858","city":"Haskins"},"43570":{"lat":"41.575645","state":"OH","long":"-84.442066","city":"West Unity"},"43548":{"lat":"41.208649","state":"OH","long":"-84.191336","city":"New Bavaria"},"43537":{"lat":"41.581682","state":"OH","long":"-83.66283","city":"Maumee"},"43526":{"lat":"41.303378","state":"OH","long":"-84.758852","city":"Hicksville"},"43515":{"lat":"41.557695","state":"OH","long":"-83.9866","city":"Delta"},"43504":{"lat":"41.698892","state":"OH","long":"-83.830972","city":"Berkey"},"43571":{"lat":"41.519432","state":"OH","long":"-83.81151","city":"Whitehouse"},"43560":{"lat":"41.707985","state":"OH","long":"-83.706825","city":"Sylvania"},"43549":{"lat":"41.378083","state":"OH","long":"-84.526921","city":"Ney"},"43527":{"lat":"41.254859","state":"OH","long":"-84.144735","city":"Holgate"},"43516":{"lat":"41.223945","state":"OH","long":"-83.896434","city":"Deshler"},"43505":{"lat":"41.524167","state":"OH","long":"-84.730278","city":"Blakeslee"},"43550":{"lat":"41.392222","state":"OH","long":"-84.125278","city":"Okolona"},"43528":{"lat":"41.622629","state":"OH","long":"-83.725712","city":"Holland"},"43517":{"lat":"41.442496","state":"OH","long":"-84.734937","city":"Edgerton"},"43506":{"lat":"41.474839","state":"OH","long":"-84.56287","city":"Bryan"},"43551":{"lat":"41.542926","state":"OH","long":"-83.592727","city":"Perrysburg"},"43540":{"lat":"41.695233","state":"OH","long":"-83.925972","city":"Metamora"},"43529":{"lat":"41.19","state":"OH","long":"-83.784722","city":"Hoytville"},"43518":{"lat":"41.584219","state":"OH","long":"-84.757002","city":"Edon"},"43552":{"lat":"41.556944","state":"OH","long":"-83.627222","city":"Perrysburg"},"43541":{"lat":"41.3025","state":"OH","long":"-83.828889","city":"Milton Center"},"43530":{"lat":"41.325833","state":"OH","long":"-84.285556","city":"Jewell"},"43519":{"lat":"41.426111","state":"OH","long":"-84.396389","city":"Evansport"},"43553":{"lat":"41.530556","state":"OH","long":"-84.229722","city":"Pettisville"},"43542":{"lat":"41.568416","state":"OH","long":"-83.775718","city":"Monclova"},"43531":{"lat":"41.636667","state":"OH","long":"-84.495278","city":"Kunkle"},"43520":{"lat":"41.383056","state":"OH","long":"-84.630556","city":"Farmer"},"43565":{"lat":"41.419167","state":"OH","long":"-83.740833","city":"Tontogany"},"43554":{"lat":"41.665619","state":"OH","long":"-84.536324","city":"Pioneer"},"43543":{"lat":"41.59821","state":"OH","long":"-84.614703","city":"Montpelier"},"43532":{"lat":"41.451371","state":"OH","long":"-83.985889","city":"Liberty Center"},"43521":{"lat":"41.671716","state":"OH","long":"-84.325004","city":"Fayette"},"43510":{"lat":"41.464722","state":"OH","long":"-83.9525","city":"Colton"}});