ComSquarepushJsonzips.load_zips({"44235":{"lat":"41.02669","state":"OH","long":"-82.124957","city":"Homerville"},"44224":{"lat":"41.174808","state":"OH","long":"-81.438017","city":"Stow"},"44202":{"lat":"41.320935","state":"OH","long":"-81.360424","city":"Aurora"},"44280":{"lat":"41.236806","state":"OH","long":"-81.924467","city":"Valley City"},"44258":{"lat":"41.138333","state":"OH","long":"-81.863889","city":"Medina"},"44236":{"lat":"41.245836","state":"OH","long":"-81.436659","city":"Hudson"},"44214":{"lat":"40.963725","state":"OH","long":"-81.995753","city":"Burbank"},"44203":{"lat":"41.018589","state":"OH","long":"-81.615314","city":"Barberton"},"44281":{"lat":"41.038375","state":"OH","long":"-81.737373","city":"Wadsworth"},"44270":{"lat":"40.968381","state":"OH","long":"-81.782599","city":"Rittman"},"44237":{"lat":"41.24","state":"OH","long":"-81.440833","city":"Hudson"},"44215":{"lat":"41.06719","state":"OH","long":"-81.909173","city":"Chippewa Lake"},"44282":{"lat":"41.025556","state":"OH","long":"-81.73","city":"Wadsworth"},"44260":{"lat":"41.038196","state":"OH","long":"-81.358963","city":"Mogadore"},"44216":{"lat":"40.939062","state":"OH","long":"-81.587079","city":"Clinton"},"44272":{"lat":"41.099534","state":"OH","long":"-81.202642","city":"Rootstown"},"44250":{"lat":"41.020833","state":"OH","long":"-81.436111","city":"Lakemore"},"44217":{"lat":"40.978846","state":"OH","long":"-81.921083","city":"Creston"},"44273":{"lat":"41.022731","state":"OH","long":"-81.856199","city":"Seville"},"44262":{"lat":"41.14202","state":"OH","long":"-81.437565","city":"Munroe Falls"},"44251":{"lat":"41.026389","state":"OH","long":"-81.933333","city":"Westfield Center"},"44240":{"lat":"41.14492","state":"OH","long":"-81.34976","city":"Kent"},"44285":{"lat":"41.160556","state":"OH","long":"-81.071389","city":"Wayland"},"44274":{"lat":"41.099722","state":"OH","long":"-81.735833","city":"Sharon Center"},"44241":{"lat":"41.249099","state":"OH","long":"-81.338298","city":"Streetsboro"},"44230":{"lat":"40.965042","state":"OH","long":"-81.684845","city":"Doylestown"},"44286":{"lat":"41.23712","state":"OH","long":"-81.646668","city":"Richfield"},"44275":{"lat":"41.098287","state":"OH","long":"-82.099907","city":"Spencer"},"44264":{"lat":"41.225579","state":"OH","long":"-81.540013","city":"Peninsula"},"44253":{"lat":"41.166847","state":"OH","long":"-82.015674","city":"Litchfield"},"44242":{"lat":"41.1474","state":"OH","long":"-81.3606","city":"Kent"},"44231":{"lat":"41.298803","state":"OH","long":"-81.070365","city":"Garrettsville"},"44287":{"lat":"40.948514","state":"OH","long":"-82.106638","city":"West Salem"},"44276":{"lat":"40.953263","state":"OH","long":"-81.851914","city":"Sterling"},"44265":{"lat":"41.032778","state":"OH","long":"-81.248611","city":"Randolph"},"44254":{"lat":"41.032713","state":"OH","long":"-82.014661","city":"Lodi"},"44243":{"lat":"41.1498","state":"OH","long":"-81.3416","city":"Kent"},"44232":{"lat":"40.945833","state":"OH","long":"-81.483333","city":"Green"},"44221":{"lat":"41.140082","state":"OH","long":"-81.478961","city":"Cuyahoga Falls"},"44210":{"lat":"41.188889","state":"OH","long":"-81.636389","city":"Bath"},"44288":{"lat":"41.239244","state":"OH","long":"-81.053451","city":"Windham"},"44266":{"lat":"41.164886","state":"OH","long":"-81.233656","city":"Ravenna"},"44255":{"lat":"41.294141","state":"OH","long":"-81.228259","city":"Mantua"},"44233":{"lat":"41.241872","state":"OH","long":"-81.74527","city":"Hinckley"},"44222":{"lat":"41.133889","state":"OH","long":"-81.484722","city":"Cuyahoga Falls"},"44211":{"lat":"41.159444","state":"OH","long":"-81.317222","city":"Brady Lake"},"44278":{"lat":"41.097492","state":"OH","long":"-81.425966","city":"Tallmadge"},"44256":{"lat":"41.140415","state":"OH","long":"-81.858351","city":"Medina"},"44234":{"lat":"41.332253","state":"OH","long":"-81.14644","city":"Hiram"},"44223":{"lat":"41.146448","state":"OH","long":"-81.510719","city":"Cuyahoga Falls"},"44212":{"lat":"41.247053","state":"OH","long":"-81.827968","city":"Brunswick"},"44201":{"lat":"41.033487","state":"OH","long":"-81.198456","city":"Atwater"}});