ComSquarepushJsonzips.load_zips({"44862":{"lat":"40.759444","state":"OH","long":"-82.590278","city":"Ontario"},"44851":{"lat":"41.090575","state":"OH","long":"-82.396588","city":"New London"},"44840":{"lat":"40.813366","state":"OH","long":"-82.186134","city":"Jeromesville"},"44818":{"lat":"41.018206","state":"OH","long":"-82.989874","city":"Bloomville"},"44807":{"lat":"41.077755","state":"OH","long":"-82.889721","city":"Attica"},"44874":{"lat":"40.945382","state":"OH","long":"-82.344272","city":"Savannah"},"44841":{"lat":"41.212543","state":"OH","long":"-83.329829","city":"Kansas"},"44830":{"lat":"41.162346","state":"OH","long":"-83.413938","city":"Fostoria"},"44875":{"lat":"40.878432","state":"OH","long":"-82.654949","city":"Shelby"},"44864":{"lat":"40.660626","state":"OH","long":"-82.321307","city":"Perrysville"},"44853":{"lat":"41.036058","state":"OH","long":"-83.241807","city":"New Riegel"},"44842":{"lat":"40.636059","state":"OH","long":"-82.23559","city":"Loudonville"},"44820":{"lat":"40.810306","state":"OH","long":"-82.969829","city":"Bucyrus"},"44887":{"lat":"40.880992","state":"OH","long":"-82.797032","city":"Tiro"},"44865":{"lat":"41.00031","state":"OH","long":"-82.663492","city":"Plymouth"},"44854":{"lat":"40.957076","state":"OH","long":"-82.850359","city":"New Washington"},"44843":{"lat":"40.70389","state":"OH","long":"-82.408671","city":"Lucas"},"44809":{"lat":"41.132778","state":"OH","long":"-83.285278","city":"Bascom"},"44888":{"lat":"41.053056","state":"OH","long":"-82.726389","city":"Willard"},"44866":{"lat":"40.934293","state":"OH","long":"-82.212587","city":"Polk"},"44855":{"lat":"41.102987","state":"OH","long":"-82.599801","city":"North Fairfield"},"44844":{"lat":"40.975225","state":"OH","long":"-83.263669","city":"Mc Cutchenville"},"44833":{"lat":"40.730316","state":"OH","long":"-82.793943","city":"Galion"},"44822":{"lat":"40.543754","state":"OH","long":"-82.398984","city":"Butler"},"44811":{"lat":"41.268432","state":"OH","long":"-82.85765","city":"Bellevue"},"44889":{"lat":"41.263748","state":"OH","long":"-82.378168","city":"Wakeman"},"44878":{"lat":"40.934015","state":"OH","long":"-82.522155","city":"Shiloh"},"44867":{"lat":"41.125876","state":"OH","long":"-83.019407","city":"Republic"},"44856":{"lat":"40.7925","state":"OH","long":"-82.857222","city":"North Robinson"},"44845":{"lat":"41.038954","state":"OH","long":"-83.143238","city":"Melmore"},"44890":{"lat":"41.062787","state":"OH","long":"-82.728805","city":"Willard"},"44857":{"lat":"41.240314","state":"OH","long":"-82.60785","city":"Norwalk"},"44846":{"lat":"41.311065","state":"OH","long":"-82.612565","city":"Milan"},"44824":{"lat":"41.387229","state":"OH","long":"-82.799426","city":"Castalia"},"44813":{"lat":"40.613604","state":"OH","long":"-82.517516","city":"Bellville"},"44802":{"lat":"41.046284","state":"OH","long":"-83.376982","city":"Alvada"},"44880":{"lat":"41.036818","state":"OH","long":"-82.217217","city":"Sullivan"},"44847":{"lat":"41.218074","state":"OH","long":"-82.70233","city":"Monroeville"},"44836":{"lat":"41.228111","state":"OH","long":"-83.088549","city":"Green Springs"},"44825":{"lat":"40.956637","state":"OH","long":"-83.021432","city":"Chatfield"},"44814":{"lat":"41.320519","state":"OH","long":"-82.477713","city":"Berlin Heights"},"44881":{"lat":"40.870833","state":"OH","long":"-82.877222","city":"Sulphur Springs"},"44870":{"lat":"41.434878","state":"OH","long":"-82.70633","city":"Sandusky"},"44859":{"lat":"41.028215","state":"OH","long":"-82.338439","city":"Nova"},"44848":{"lat":"40.921389","state":"OH","long":"-82.281944","city":"Nankin"},"44837":{"lat":"41.04068","state":"OH","long":"-82.51334","city":"Greenwich"},"44826":{"lat":"41.245023","state":"OH","long":"-82.490402","city":"Collins"},"44815":{"lat":"41.246389","state":"OH","long":"-83.235833","city":"Bettsville"},"44804":{"lat":"41.111562","state":"OH","long":"-83.50195","city":"Arcadia"},"44882":{"lat":"40.941299","state":"OH","long":"-83.149176","city":"Sycamore"},"44871":{"lat":"41.448889","state":"OH","long":"-82.708056","city":"Sandusky"},"44860":{"lat":"40.844722","state":"OH","long":"-83.093889","city":"Oceola"},"44849":{"lat":"40.825946","state":"OH","long":"-83.126567","city":"Nevada"},"44838":{"lat":"40.773056","state":"OH","long":"-82.2625","city":"Hayesville"},"44827":{"lat":"40.792714","state":"OH","long":"-82.736723","city":"Crestline"},"44816":{"lat":"41.33","state":"OH","long":"-82.360833","city":"Birmingham"},"44805":{"lat":"40.855892","state":"OH","long":"-82.318931","city":"Ashland"},"44883":{"lat":"41.123822","state":"OH","long":"-83.184356","city":"Tiffin"},"44861":{"lat":"41.24","state":"OH","long":"-83.15","city":"Old Fort"},"44850":{"lat":"41.031667","state":"OH","long":"-82.681667","city":"New Haven"},"44839":{"lat":"41.390662","state":"OH","long":"-82.555491","city":"Huron"},"44828":{"lat":"41.235833","state":"OH","long":"-82.860278","city":"Flat Rock"},"44817":{"lat":"41.181489","state":"OH","long":"-83.572356","city":"Bloomdale"}});