ComSquarepushJsonzips.load_zips({"45373":{"lat":"40.037394","state":"OH","long":"-84.203151","city":"Troy"},"45310":{"lat":"40.351944","state":"OH","long":"-84.642222","city":"Burkettsville"},"45309":{"lat":"39.841393","state":"OH","long":"-84.416464","city":"Brookville"},"45331":{"lat":"40.098726","state":"OH","long":"-84.634189","city":"Greenville"},"45352":{"lat":"40.049444","state":"OH","long":"-84.743333","city":"Palestine"},"45374":{"lat":"40.039444","state":"OH","long":"-84.203333","city":"Troy"},"45311":{"lat":"39.613391","state":"OH","long":"-84.610008","city":"Camden"},"45332":{"lat":"39.989862","state":"OH","long":"-84.79008","city":"Hollansburg"},"45353":{"lat":"40.294722","state":"OH","long":"-84.0325","city":"Pemberton"},"45312":{"lat":"40.071578","state":"OH","long":"-84.108799","city":"Casstown"},"45333":{"lat":"40.253478","state":"OH","long":"-84.352109","city":"Houston"},"45354":{"lat":"39.904444","state":"OH","long":"-84.401667","city":"Phillipsburg"},"45334":{"lat":"40.435802","state":"OH","long":"-84.045677","city":"Jackson Center"},"45377":{"lat":"39.888273","state":"OH","long":"-84.202266","city":"Vandalia"},"45356":{"lat":"40.148621","state":"OH","long":"-84.253053","city":"Piqua"},"45314":{"lat":"39.748424","state":"OH","long":"-83.801253","city":"Cedarville"},"45335":{"lat":"39.642848","state":"OH","long":"-83.750417","city":"Jamestown"},"45378":{"lat":"39.903333","state":"OH","long":"-84.485556","city":"Verona"},"45315":{"lat":"39.855124","state":"OH","long":"-84.33989","city":"Clayton"},"45336":{"lat":"40.438889","state":"OH","long":"-84.261389","city":"Kettlersville"},"45380":{"lat":"40.227284","state":"OH","long":"-84.495697","city":"Versailles"},"45316":{"lat":"39.796944","state":"OH","long":"-83.825833","city":"Clifton"},"45337":{"lat":"39.978492","state":"OH","long":"-84.3994","city":"Laura"},"45358":{"lat":"39.9875","state":"OH","long":"-84.4875","city":"Pitsburg"},"45381":{"lat":"39.725898","state":"OH","long":"-84.535214","city":"West Alexandria"},"45317":{"lat":"40.145694","state":"OH","long":"-84.028297","city":"Conover"},"45338":{"lat":"39.853404","state":"OH","long":"-84.53685","city":"Lewisburg"},"45360":{"lat":"40.328611","state":"OH","long":"-84.094444","city":"Port Jefferson"},"45359":{"lat":"40.053136","state":"OH","long":"-84.343634","city":"Pleasant Hill"},"45382":{"lat":"39.902564","state":"OH","long":"-84.619383","city":"West Manchester"},"45318":{"lat":"40.11756","state":"OH","long":"-84.349646","city":"Covington"},"45340":{"lat":"40.343743","state":"OH","long":"-84.076657","city":"Maplewood"},"45339":{"lat":"39.987091","state":"OH","long":"-84.333391","city":"Ludlow Falls"},"45361":{"lat":"39.963333","state":"OH","long":"-84.4175","city":"Potsdam"},"45383":{"lat":"39.953077","state":"OH","long":"-84.324237","city":"West Milton"},"45320":{"lat":"39.742572","state":"OH","long":"-84.650849","city":"Eaton"},"45319":{"lat":"39.918333","state":"OH","long":"-83.948611","city":"Donnelsville"},"45341":{"lat":"39.879774","state":"OH","long":"-84.026808","city":"Medway"},"45362":{"lat":"40.29465","state":"OH","long":"-84.626419","city":"Rossburg"},"45384":{"lat":"39.716111","state":"OH","long":"-83.877778","city":"Wilberforce"},"45321":{"lat":"39.888209","state":"OH","long":"-84.678592","city":"Eldorado"},"45342":{"lat":"39.632095","state":"OH","long":"-84.267477","city":"Miamisburg"},"45363":{"lat":"40.234065","state":"OH","long":"-84.412255","city":"Russia"},"45385":{"lat":"39.684204","state":"OH","long":"-83.936878","city":"Xenia"},"45301":{"lat":"39.711667","state":"OH","long":"-84.023333","city":"Alpha"},"45322":{"lat":"39.873976","state":"OH","long":"-84.309515","city":"Englewood"},"45343":{"lat":"39.642778","state":"OH","long":"-84.286667","city":"Miamisburg"},"45323":{"lat":"39.866282","state":"OH","long":"-83.938464","city":"Enon"},"45344":{"lat":"39.930025","state":"OH","long":"-84.021704","city":"New Carlisle"},"45365":{"lat":"40.287357","state":"OH","long":"-84.162223","city":"Sidney"},"45302":{"lat":"40.405105","state":"OH","long":"-84.210344","city":"Anna"},"45387":{"lat":"39.799569","state":"OH","long":"-83.889066","city":"Yellow Springs"},"45345":{"lat":"39.739798","state":"OH","long":"-84.395591","city":"New Lebanon"},"45303":{"lat":"40.215064","state":"OH","long":"-84.640642","city":"Ansonia"},"45324":{"lat":"39.805311","state":"OH","long":"-84.019789","city":"Fairborn"},"45388":{"lat":"40.328328","state":"OH","long":"-84.483587","city":"Yorkshire"},"45367":{"lat":"40.284167","state":"OH","long":"-84.155556","city":"Sidney"},"45304":{"lat":"39.988367","state":"OH","long":"-84.53702","city":"Arcanum"},"45325":{"lat":"39.686684","state":"OH","long":"-84.420507","city":"Farmersville"},"45346":{"lat":"39.968711","state":"OH","long":"-84.722211","city":"New Madison"},"45390":{"lat":"40.201773","state":"OH","long":"-84.783209","city":"Union City"},"45389":{"lat":"40.055278","state":"OH","long":"-84.026111","city":"Christiansburg"},"45305":{"lat":"39.640187","state":"OH","long":"-84.08245","city":"Bellbrook"},"45326":{"lat":"40.152622","state":"OH","long":"-84.13304","city":"Fletcher"},"45347":{"lat":"39.861718","state":"OH","long":"-84.779337","city":"New Paris"},"45368":{"lat":"39.846939","state":"OH","long":"-83.660787","city":"South Charleston"},"45306":{"lat":"40.465897","state":"OH","long":"-84.177994","city":"Botkins"},"45327":{"lat":"39.6244","state":"OH","long":"-84.376384","city":"Germantown"},"45348":{"lat":"40.334923","state":"OH","long":"-84.630792","city":"New Weston"},"45370":{"lat":"39.602761","state":"OH","long":"-84.101583","city":"Spring Valley"},"45369":{"lat":"39.94732","state":"OH","long":"-83.615704","city":"South Vienna"},"45307":{"lat":"39.580556","state":"OH","long":"-83.725","city":"Bowersville"},"45328":{"lat":"40.111389","state":"OH","long":"-84.495278","city":"Gettysburg"},"45350":{"lat":"40.324722","state":"OH","long":"-84.570556","city":"North Star"},"45349":{"lat":"39.99","state":"OH","long":"-83.94","city":"North Hampton"},"45371":{"lat":"39.943577","state":"OH","long":"-84.171501","city":"Tipp City"},"45308":{"lat":"40.128558","state":"OH","long":"-84.429288","city":"Bradford"},"45330":{"lat":"39.647778","state":"OH","long":"-84.527222","city":"Gratis"},"45351":{"lat":"40.339722","state":"OH","long":"-84.495278","city":"Osgood"},"45372":{"lat":"40.011111","state":"OH","long":"-83.836111","city":"Tremont City"}});