ComSquarepushJsonzips.load_zips({"46072":{"lat":"40.281725","state":"IN","long":"-86.043291","city":"Tipton"},"46061":{"lat":"40.0394","state":"IN","long":"-86.0015","city":"Noblesville"},"46050":{"lat":"40.203066","state":"IN","long":"-86.332372","city":"Kirklin"},"46039":{"lat":"40.375728","state":"IN","long":"-86.320098","city":"Forest"},"46017":{"lat":"40.096431","state":"IN","long":"-85.601493","city":"Anderson"},"46062":{"lat":"40.0599","state":"IN","long":"-86.0575","city":"Noblesville"},"46051":{"lat":"40.085429","state":"IN","long":"-85.84395","city":"Lapel"},"46040":{"lat":"39.922835","state":"IN","long":"-85.818554","city":"Fortville"},"46018":{"lat":"40.1052","state":"IN","long":"-85.6802","city":"Anderson"},"46074":{"lat":"40.048868","state":"IN","long":"-86.149907","city":"Westfield"},"46063":{"lat":"40.269444","state":"IN","long":"-85.728056","city":"Orestes"},"46052":{"lat":"40.044894","state":"IN","long":"-86.464074","city":"Lebanon"},"46041":{"lat":"40.288404","state":"IN","long":"-86.511387","city":"Frankfort"},"46030":{"lat":"40.17758","state":"IN","long":"-86.040882","city":"Arcadia"},"46075":{"lat":"40.00002","state":"IN","long":"-86.350716","city":"Whitestown"},"46064":{"lat":"39.979237","state":"IN","long":"-85.794614","city":"Pendleton"},"46031":{"lat":"40.146964","state":"IN","long":"-85.933945","city":"Atlanta"},"46076":{"lat":"40.366891","state":"IN","long":"-85.947624","city":"Windfall"},"46065":{"lat":"40.410928","state":"IN","long":"-86.607966","city":"Rossville"},"46032":{"lat":"39.971232","state":"IN","long":"-86.124545","city":"Carmel"},"46077":{"lat":"39.956111","state":"IN","long":"-86.276737","city":"Zionsville"},"46055":{"lat":"39.901823","state":"IN","long":"-85.909502","city":"Mc Cordsville"},"46044":{"lat":"40.228548","state":"IN","long":"-85.77911","city":"Frankton"},"46033":{"lat":"39.9762","state":"IN","long":"-86.0865","city":"Carmel"},"46011":{"lat":"40.114577","state":"IN","long":"-85.725305","city":"Anderson"},"46067":{"lat":"40.415556","state":"IN","long":"-86.514722","city":"Sedalia"},"46056":{"lat":"39.994385","state":"IN","long":"-85.622736","city":"Markleville"},"46045":{"lat":"40.289444","state":"IN","long":"-86.149167","city":"Goldsmith"},"46034":{"lat":"40.126781","state":"IN","long":"-86.024844","city":"Cicero"},"46012":{"lat":"40.130947","state":"IN","long":"-85.653591","city":"Anderson"},"46001":{"lat":"40.256081","state":"IN","long":"-85.668148","city":"Alexandria"},"46068":{"lat":"40.373232","state":"IN","long":"-86.108641","city":"Sharpsville"},"46057":{"lat":"40.310823","state":"IN","long":"-86.375306","city":"Michigantown"},"46035":{"lat":"40.195619","state":"IN","long":"-86.659271","city":"Colfax"},"46013":{"lat":"40.061865","state":"IN","long":"-85.680073","city":"Anderson"},"46069":{"lat":"40.110407","state":"IN","long":"-86.236741","city":"Sheridan"},"46058":{"lat":"40.343299","state":"IN","long":"-86.661261","city":"Mulberry"},"46047":{"lat":"40.283611","state":"IN","long":"-85.9475","city":"Hobbs"},"46036":{"lat":"40.280278","state":"IN","long":"-85.839055","city":"Elwood"},"46014":{"lat":"40.0865","state":"IN","long":"-85.6837","city":"Anderson"},"46070":{"lat":"40.339833","state":"IN","long":"-85.640261","city":"Summitville"},"46048":{"lat":"40.000237","state":"IN","long":"-85.825596","city":"Ingalls"},"46037":{"lat":"39.957254","state":"IN","long":"-85.945711","city":"Fishers"},"46015":{"lat":"40.1059","state":"IN","long":"-85.6784","city":"Anderson"},"46082":{"lat":"39.9664","state":"IN","long":"-86.1694","city":"Carmel"},"46071":{"lat":"40.113335","state":"IN","long":"-86.589822","city":"Thorntown"},"46060":{"lat":"40.056292","state":"IN","long":"-86.016294","city":"Noblesville"},"46049":{"lat":"40.275946","state":"IN","long":"-86.1887","city":"Kempton"},"46038":{"lat":"39.957486","state":"IN","long":"-86.023048","city":"Fishers"},"46016":{"lat":"40.098799","state":"IN","long":"-85.684566","city":"Anderson"}});