ComSquarepushJsonzips.load_zips({"47060":{"lat":"39.266727","state":"IN","long":"-84.878027","city":"West Harrison"},"47038":{"lat":"38.853691","state":"IN","long":"-84.851543","city":"Patriot"},"47016":{"lat":"39.345891","state":"IN","long":"-84.892402","city":"Cedar Grove"},"47039":{"lat":"39.133333","state":"IN","long":"-85.179722","city":"Pierceville"},"47017":{"lat":"38.949046","state":"IN","long":"-85.21221","city":"Cross Plains"},"47006":{"lat":"39.300057","state":"IN","long":"-85.222053","city":"Batesville"},"47040":{"lat":"38.956667","state":"IN","long":"-84.880676","city":"Rising Sun"},"47018":{"lat":"38.996195","state":"IN","long":"-85.054994","city":"Dillsboro"},"47041":{"lat":"39.262307","state":"IN","long":"-85.115929","city":"Sunman"},"47030":{"lat":"39.428775","state":"IN","long":"-85.15044","city":"Metamora"},"47019":{"lat":"38.872778","state":"IN","long":"-84.988056","city":"East Enterprise"},"47042":{"lat":"39.051074","state":"IN","long":"-85.223489","city":"Versailles"},"47031":{"lat":"39.150333","state":"IN","long":"-85.13242","city":"Milan"},"47020":{"lat":"38.822436","state":"IN","long":"-84.939872","city":"Florence"},"47043":{"lat":"38.772423","state":"IN","long":"-85.085217","city":"Vevay"},"47032":{"lat":"39.094459","state":"IN","long":"-85.063806","city":"Moores Hill"},"47021":{"lat":"39.114591","state":"IN","long":"-85.215296","city":"Friendship"},"47010":{"lat":"39.499237","state":"IN","long":"-84.836007","city":"Bath"},"47033":{"lat":"39.282222","state":"IN","long":"-85.1775","city":"Morris"},"47022":{"lat":"39.205855","state":"IN","long":"-84.961586","city":"Guilford"},"47011":{"lat":"38.875993","state":"IN","long":"-85.071897","city":"Bennington"},"47034":{"lat":"39.204722","state":"IN","long":"-85.330833","city":"Napoleon"},"47023":{"lat":"39.049817","state":"IN","long":"-85.373945","city":"Holton"},"47012":{"lat":"39.421305","state":"IN","long":"-84.999423","city":"Brookville"},"47001":{"lat":"39.071897","state":"IN","long":"-84.945188","city":"Aurora"},"47035":{"lat":"39.310833","state":"IN","long":"-84.901389","city":"New Trenton"},"47024":{"lat":"39.491573","state":"IN","long":"-85.208044","city":"Laurel"},"47036":{"lat":"39.359797","state":"IN","long":"-85.22223","city":"Oldenburg"},"47025":{"lat":"39.140123","state":"IN","long":"-84.865819","city":"Lawrenceburg"},"47003":{"lat":"39.5675","state":"IN","long":"-84.816111","city":"West College Corner"},"47037":{"lat":"39.157342","state":"IN","long":"-85.293812","city":"Osgood"}});