ComSquarepushJsonzips.load_zips({"47390":{"lat":"40.202372","state":"IN","long":"-84.826787","city":"Union City"},"47368":{"lat":"40.193841","state":"IN","long":"-85.196265","city":"Parker City"},"47357":{"lat":"39.776279","state":"IN","long":"-85.142267","city":"Milton"},"47346":{"lat":"39.92277","state":"IN","long":"-85.160091","city":"Hagerstown"},"47335":{"lat":"39.812222","state":"IN","long":"-85.208889","city":"Dublin"},"47324":{"lat":"39.741111","state":"IN","long":"-84.851944","city":"Boston"},"47302":{"lat":"40.168414","state":"IN","long":"-85.380689","city":"Muncie"},"47380":{"lat":"40.280359","state":"IN","long":"-85.037101","city":"Ridgeville"},"47369":{"lat":"40.508195","state":"IN","long":"-85.149166","city":"Pennville"},"47358":{"lat":"40.05816","state":"IN","long":"-85.091904","city":"Modoc"},"47336":{"lat":"40.388291","state":"IN","long":"-85.225541","city":"Dunkirk"},"47325":{"lat":"39.684485","state":"IN","long":"-84.98807","city":"Brownsville"},"47303":{"lat":"40.217992","state":"IN","long":"-85.378966","city":"Muncie"},"47392":{"lat":"39.905701","state":"IN","long":"-84.942908","city":"Webster"},"47381":{"lat":"40.358234","state":"IN","long":"-84.855098","city":"Salamonia"},"47370":{"lat":"39.812778","state":"IN","long":"-85.163611","city":"Pershing"},"47359":{"lat":"40.557656","state":"IN","long":"-85.251339","city":"Montpelier"},"47348":{"lat":"40.454106","state":"IN","long":"-85.375771","city":"Hartford City"},"47337":{"lat":"39.803333","state":"IN","long":"-85.438611","city":"Dunreith"},"47326":{"lat":"40.54462","state":"IN","long":"-84.911748","city":"Bryant"},"47304":{"lat":"40.211134","state":"IN","long":"-85.429115","city":"Muncie"},"47393":{"lat":"39.958005","state":"IN","long":"-84.998442","city":"Williamsburg"},"47382":{"lat":"40.257365","state":"IN","long":"-84.950846","city":"Saratoga"},"47371":{"lat":"40.430564","state":"IN","long":"-84.992825","city":"Portland"},"47360":{"lat":"39.994066","state":"IN","long":"-85.258065","city":"Mooreland"},"47338":{"lat":"40.337673","state":"IN","long":"-85.354387","city":"Eaton"},"47327":{"lat":"39.818171","state":"IN","long":"-85.168455","city":"Cambridge City"},"47305":{"lat":"40.193299","state":"IN","long":"-85.386163","city":"Muncie"},"47394":{"lat":"40.16959","state":"IN","long":"-85.004366","city":"Winchester"},"47383":{"lat":"40.169295","state":"IN","long":"-85.273765","city":"Selma"},"47361":{"lat":"40.004444","state":"IN","long":"-85.384722","city":"Mount Summit"},"47339":{"lat":"39.971215","state":"IN","long":"-85.087803","city":"Economy"},"47306":{"lat":"40.192739","state":"IN","long":"-85.410153","city":"Muncie"},"47384":{"lat":"39.91582","state":"IN","long":"-85.518151","city":"Shirley"},"47373":{"lat":"40.326491","state":"IN","long":"-85.161966","city":"Redkey"},"47362":{"lat":"39.920765","state":"IN","long":"-85.366322","city":"New Castle"},"47351":{"lat":"39.903889","state":"IN","long":"-85.519444","city":"Kennard"},"47340":{"lat":"40.194454","state":"IN","long":"-85.125381","city":"Farmland"},"47307":{"lat":"40.1248","state":"IN","long":"-85.3404","city":"Muncie"},"47396":{"lat":"40.183581","state":"IN","long":"-85.495995","city":"Yorktown"},"47385":{"lat":"39.827078","state":"IN","long":"-85.445043","city":"Spiceland"},"47374":{"lat":"39.83244","state":"IN","long":"-84.893606","city":"Richmond"},"47352":{"lat":"39.828288","state":"IN","long":"-85.36211","city":"Lewisville"},"47341":{"lat":"39.963429","state":"IN","long":"-84.908996","city":"Fountain City"},"47330":{"lat":"39.808103","state":"IN","long":"-85.00317","city":"Centerville"},"47308":{"lat":"40.1314","state":"IN","long":"-85.3764","city":"Muncie"},"47386":{"lat":"40.008848","state":"IN","long":"-85.368867","city":"Springport"},"47375":{"lat":"39.828889","state":"IN","long":"-84.890278","city":"Richmond"},"47353":{"lat":"39.612645","state":"IN","long":"-84.908947","city":"Liberty"},"47342":{"lat":"40.29479","state":"IN","long":"-85.489842","city":"Gaston"},"47331":{"lat":"39.643508","state":"IN","long":"-85.146431","city":"Connersville"},"47320":{"lat":"40.292049","state":"IN","long":"-85.257987","city":"Albany"},"47387":{"lat":"39.831946","state":"IN","long":"-85.272406","city":"Straughn"},"47354":{"lat":"40.047492","state":"IN","long":"-85.21085","city":"Losantville"},"47388":{"lat":"40.011121","state":"IN","long":"-85.440747","city":"Sulphur Springs"},"47366":{"lat":"39.863333","state":"IN","long":"-85.263056","city":"New Lisbon"},"47355":{"lat":"40.051863","state":"IN","long":"-84.93003","city":"Lynn"},"47344":{"lat":"39.875","state":"IN","long":"-85.466111","city":"Greensboro"},"47322":{"lat":"39.745278","state":"IN","long":"-86.194167","city":"Bentonville"},"47367":{"lat":"40.079167","state":"IN","long":"-85.390556","city":"Oakville"},"47356":{"lat":"40.047488","state":"IN","long":"-85.536778","city":"Middletown"},"47345":{"lat":"39.89163","state":"IN","long":"-85.049413","city":"Greens Fork"},"47334":{"lat":"40.125738","state":"IN","long":"-85.511016","city":"Daleville"}});