ComSquarepushJsonzips.load_zips({"47665":{"lat":"38.274414","state":"IN","long":"-87.709052","city":"Owensville"},"47654":{"lat":"38.252222","state":"IN","long":"-87.391667","city":"Mackey"},"47610":{"lat":"38.042304","state":"IN","long":"-87.375552","city":"Chandler"},"47666":{"lat":"38.414296","state":"IN","long":"-87.595789","city":"Patoka"},"47633":{"lat":"38.171986","state":"IN","long":"-87.802747","city":"Poseyville"},"47611":{"lat":"38.005995","state":"IN","long":"-87.070421","city":"Chrisney"},"47634":{"lat":"37.913599","state":"IN","long":"-87.200957","city":"Richland"},"47612":{"lat":"38.174299","state":"IN","long":"-87.711518","city":"Cynthiana"},"47601":{"lat":"38.047435","state":"IN","long":"-87.261994","city":"Boonville"},"47635":{"lat":"37.885803","state":"IN","long":"-87.07701","city":"Rockport"},"47613":{"lat":"38.205267","state":"IN","long":"-87.417943","city":"Elberfeld"},"47647":{"lat":"38.220867","state":"IN","long":"-87.43077","city":"Buckskin"},"47614":{"lat":"38.129167","state":"IN","long":"-87.164167","city":"Folsomville"},"47670":{"lat":"38.352502","state":"IN","long":"-87.569069","city":"Princeton"},"47648":{"lat":"38.247136","state":"IN","long":"-87.568233","city":"Fort Branch"},"47637":{"lat":"38.123207","state":"IN","long":"-87.13875","city":"Tennyson"},"47615":{"lat":"37.970297","state":"IN","long":"-86.956774","city":"Grandview"},"47660":{"lat":"38.336053","state":"IN","long":"-87.351907","city":"Oakland City"},"47649":{"lat":"38.332953","state":"IN","long":"-87.453621","city":"Francisco"},"47638":{"lat":"38.082791","state":"IN","long":"-87.754295","city":"Wadesville"},"47616":{"lat":"38.206858","state":"IN","long":"-87.916631","city":"Griffin"},"47683":{"lat":"38.276389","state":"IN","long":"-87.377778","city":"Somerville"},"47639":{"lat":"38.189536","state":"IN","long":"-87.579827","city":"Haubstadt"},"47617":{"lat":"37.9025","state":"IN","long":"-87.224167","city":"Hatfield"},"47640":{"lat":"38.462283","state":"IN","long":"-87.498348","city":"Hazleton"},"47629":{"lat":"37.944444","state":"IN","long":"-87.405278","city":"Newburgh"},"47618":{"lat":"38.108056","state":"IN","long":"-87.558889","city":"Inglefield"},"47630":{"lat":"37.963746","state":"IN","long":"-87.393798","city":"Newburgh"},"47619":{"lat":"38.196085","state":"IN","long":"-87.293486","city":"Lynnville"},"47631":{"lat":"38.124502","state":"IN","long":"-87.917186","city":"New Harmony"},"47620":{"lat":"37.950569","state":"IN","long":"-87.856887","city":"Mount Vernon"}});