ComSquarepushJsonzips.load_zips({"49092":{"lat":"42.086326","state":"MI","long":"-84.992602","city":"Tekonsha"},"49007":{"lat":"42.295688","state":"MI","long":"-85.613722","city":"Kalamazoo"},"49028":{"lat":"41.864316","state":"MI","long":"-85.183767","city":"Bronson"},"49050":{"lat":"42.501478","state":"MI","long":"-85.249452","city":"Dowling"},"49071":{"lat":"42.245069","state":"MI","long":"-85.794281","city":"Mattawan"},"49093":{"lat":"41.959598","state":"MI","long":"-85.637125","city":"Three Rivers"},"49008":{"lat":"42.262432","state":"MI","long":"-85.609645","city":"Kalamazoo"},"49030":{"lat":"41.845898","state":"MI","long":"-85.334536","city":"Burr Oak"},"49029":{"lat":"42.123859","state":"MI","long":"-85.105","city":"Burlington"},"49051":{"lat":"42.196125","state":"MI","long":"-85.231083","city":"East Leroy"},"49072":{"lat":"42.014262","state":"MI","long":"-85.472697","city":"Mendon"},"49094":{"lat":"42.055134","state":"MI","long":"-85.135637","city":"Union City"},"49073":{"lat":"42.593721","state":"MI","long":"-85.122029","city":"Nashville"},"49052":{"lat":"42.139086","state":"MI","long":"-85.322659","city":"Fulton"},"49010":{"lat":"42.525609","state":"MI","long":"-85.86608","city":"Allegan"},"49009":{"lat":"42.280947","state":"MI","long":"-85.686333","city":"Kalamazoo"},"49031":{"lat":"41.896805","state":"MI","long":"-85.992273","city":"Cassopolis"},"49095":{"lat":"41.895506","state":"MI","long":"-85.875546","city":"Vandalia"},"49074":{"lat":"42.351944","state":"MI","long":"-85.526389","city":"Nazareth"},"49011":{"lat":"42.102962","state":"MI","long":"-85.231742","city":"Athens"},"49032":{"lat":"41.921685","state":"MI","long":"-85.496299","city":"Centreville"},"49053":{"lat":"42.294843","state":"MI","long":"-85.423665","city":"Galesburg"},"49096":{"lat":"42.63921","state":"MI","long":"-85.010984","city":"Vermontville"},"49075":{"lat":"41.918889","state":"MI","long":"-85.448889","city":"Nottawa"},"49012":{"lat":"42.356313","state":"MI","long":"-85.354012","city":"Augusta"},"49033":{"lat":"42.212741","state":"MI","long":"-85.11285","city":"Ceresco"},"49097":{"lat":"42.120896","state":"MI","long":"-85.502376","city":"Vicksburg"},"49076":{"lat":"42.445947","state":"MI","long":"-84.897312","city":"Olivet"},"49013":{"lat":"42.33122","state":"MI","long":"-86.131096","city":"Bangor"},"49034":{"lat":"42.233979","state":"MI","long":"-85.323832","city":"Climax"},"49055":{"lat":"42.370182","state":"MI","long":"-85.853649","city":"Gobles"},"49098":{"lat":"42.193804","state":"MI","long":"-86.26037","city":"Watervliet"},"49077":{"lat":"42.258889","state":"MI","long":"-85.6775","city":"Oshtemo"},"49014":{"lat":"42.3053","state":"MI","long":"-85.1389","city":"Battle Creek"},"49035":{"lat":"42.636667","state":"MI","long":"-85.308611","city":"Cloverdale"},"49056":{"lat":"42.376081","state":"MI","long":"-86.054052","city":"Grand Junction"},"49099":{"lat":"41.792891","state":"MI","long":"-85.67501","city":"White Pigeon"},"49078":{"lat":"42.472334","state":"MI","long":"-85.703497","city":"Otsego"},"49015":{"lat":"42.302806","state":"MI","long":"-85.212825","city":"Battle Creek"},"49036":{"lat":"41.925464","state":"MI","long":"-85.005682","city":"Coldwater"},"49057":{"lat":"42.208807","state":"MI","long":"-86.168703","city":"Hartford"},"49080":{"lat":"42.454379","state":"MI","long":"-85.59936","city":"Plainwell"},"49079":{"lat":"42.234931","state":"MI","long":"-85.900488","city":"Paw Paw"},"49016":{"lat":"42.322277","state":"MI","long":"-85.182558","city":"Battle Creek"},"49058":{"lat":"42.643007","state":"MI","long":"-85.293687","city":"Hastings"},"49081":{"lat":"42.2294","state":"MI","long":"-85.6269","city":"Portage"},"49017":{"lat":"42.332218","state":"MI","long":"-85.181106","city":"Battle Creek"},"49038":{"lat":"42.202952","state":"MI","long":"-86.32247","city":"Coloma"},"49060":{"lat":"42.423682","state":"MI","long":"-85.399784","city":"Hickory Corners"},"49082":{"lat":"41.970694","state":"MI","long":"-84.849295","city":"Quincy"},"49018":{"lat":"42.3954","state":"MI","long":"-85.2165","city":"Battle Creek"},"49040":{"lat":"41.957605","state":"MI","long":"-85.330588","city":"Colon"},"49039":{"lat":"42.186111","state":"MI","long":"-86.308333","city":"Hagar Shores"},"49061":{"lat":"41.912903","state":"MI","long":"-85.834111","city":"Jones"},"49083":{"lat":"42.375689","state":"MI","long":"-85.444651","city":"Richland"},"49019":{"lat":"42.2916","state":"MI","long":"-85.5872","city":"Kalamazoo"},"49041":{"lat":"42.286667","state":"MI","long":"-85.513333","city":"Comstock"},"49062":{"lat":"42.361667","state":"MI","long":"-85.813333","city":"Kendall"},"49020":{"lat":"42.395278","state":"MI","long":"-85.232222","city":"Bedford"},"49084":{"lat":"42.183333","state":"MI","long":"-86.382778","city":"Riverside"},"49063":{"lat":"42.413611","state":"MI","long":"-86.129722","city":"Lacota"},"49021":{"lat":"42.452474","state":"MI","long":"-85.048867","city":"Bellevue"},"49042":{"lat":"41.846029","state":"MI","long":"-85.657094","city":"Constantine"},"49085":{"lat":"42.063959","state":"MI","long":"-86.478341","city":"Saint Joseph"},"49001":{"lat":"42.273565","state":"MI","long":"-85.545653","city":"Kalamazoo"},"49022":{"lat":"42.108594","state":"MI","long":"-86.423417","city":"Benton Harbor"},"49043":{"lat":"42.291074","state":"MI","long":"-86.274294","city":"Covert"},"49064":{"lat":"42.207635","state":"MI","long":"-86.052543","city":"Lawrence"},"49002":{"lat":"42.207482","state":"MI","long":"-85.595691","city":"Portage"},"49023":{"lat":"42.116667","state":"MI","long":"-86.454167","city":"Benton Harbor"},"49065":{"lat":"42.154462","state":"MI","long":"-85.828966","city":"Lawton"},"49087":{"lat":"42.132857","state":"MI","long":"-85.663741","city":"Schoolcraft"},"49003":{"lat":"42.2661","state":"MI","long":"-85.5663","city":"Kalamazoo"},"49024":{"lat":"42.2158","state":"MI","long":"-85.6191","city":"Portage"},"49045":{"lat":"42.101219","state":"MI","long":"-86.033808","city":"Decatur"},"49066":{"lat":"42.029394","state":"MI","long":"-85.349683","city":"Leonidas"},"49088":{"lat":"42.181892","state":"MI","long":"-85.468492","city":"Scotts"},"49004":{"lat":"42.326538","state":"MI","long":"-85.541959","city":"Kalamazoo"},"49046":{"lat":"42.514102","state":"MI","long":"-85.406706","city":"Delton"},"49067":{"lat":"42.027461","state":"MI","long":"-85.798776","city":"Marcellus"},"49090":{"lat":"42.404096","state":"MI","long":"-86.254207","city":"South Haven"},"49089":{"lat":"42.010736","state":"MI","long":"-85.240797","city":"Sherwood"},"49005":{"lat":"42.2919","state":"MI","long":"-85.5798","city":"Kalamazoo"},"49026":{"lat":"42.384232","state":"MI","long":"-85.956757","city":"Bloomingdale"},"49047":{"lat":"41.990965","state":"MI","long":"-86.116766","city":"Dowagiac"},"49068":{"lat":"42.272047","state":"MI","long":"-84.95828","city":"Marshall"},"49091":{"lat":"41.808934","state":"MI","long":"-85.426357","city":"Sturgis"},"49006":{"lat":"42.2938","state":"MI","long":"-85.6251","city":"Kalamazoo"},"49027":{"lat":"42.346389","state":"MI","long":"-86.073056","city":"Breedsville"},"49048":{"lat":"42.292","state":"MI","long":"-85.5261","city":"Kalamazoo"},"49070":{"lat":"42.548321","state":"MI","long":"-85.610646","city":"Martin"},"49069":{"lat":"42.272222","state":"MI","long":"-84.963333","city":"Marshall"}});