ComSquarepushJsonzips.load_zips({"49601":{"lat":"44.250447","state":"MI","long":"-85.430046","city":"Cadillac"},"49622":{"lat":"45.074796","state":"MI","long":"-85.267285","city":"Central Lake"},"49643":{"lat":"44.651769","state":"MI","long":"-85.802156","city":"Interlochen"},"49664":{"lat":"44.859035","state":"MI","long":"-85.881392","city":"Maple City"},"49685":{"lat":"44.7628","state":"MI","long":"-85.6236","city":"Traverse City"},"49623":{"lat":"43.868172","state":"MI","long":"-85.619639","city":"Chase"},"49644":{"lat":"44.096638","state":"MI","long":"-85.939008","city":"Irons"},"49665":{"lat":"44.046314","state":"MI","long":"-85.155031","city":"Marion"},"49686":{"lat":"44.7508","state":"MI","long":"-85.5444","city":"Traverse City"},"49645":{"lat":"44.369168","state":"MI","long":"-86.046737","city":"Kaleva"},"49666":{"lat":"44.626111","state":"MI","long":"-85.528611","city":"Mayfield"},"49688":{"lat":"44.107181","state":"MI","long":"-85.490143","city":"Tustin"},"49646":{"lat":"44.73546","state":"MI","long":"-85.120655","city":"Kalkaska"},"49667":{"lat":"44.36843","state":"MI","long":"-85.015508","city":"Merritt"},"49625":{"lat":"44.450276","state":"MI","long":"-85.887859","city":"Copemish"},"49690":{"lat":"44.801952","state":"MI","long":"-85.434732","city":"Williamsburg"},"49689":{"lat":"44.213266","state":"MI","long":"-85.955475","city":"Wellston"},"49668":{"lat":"44.407451","state":"MI","long":"-85.706122","city":"Mesick"},"49626":{"lat":"44.244444","state":"MI","long":"-86.296111","city":"Eastlake"},"49627":{"lat":"45.107222","state":"MI","long":"-85.35","city":"Eastport"},"49648":{"lat":"45.012574","state":"MI","long":"-85.353941","city":"Kewadin"},"49670":{"lat":"45.115699","state":"MI","long":"-85.617287","city":"Northport"},"49628":{"lat":"44.619444","state":"MI","long":"-86.226389","city":"Elberta"},"49650":{"lat":"44.731736","state":"MI","long":"-85.85284","city":"Lake Ann"},"49649":{"lat":"44.575644","state":"MI","long":"-85.526235","city":"Kingsley"},"49630":{"lat":"44.84106","state":"MI","long":"-85.992533","city":"Empire"},"49629":{"lat":"44.895473","state":"MI","long":"-85.408226","city":"Elk Rapids"},"49651":{"lat":"44.361932","state":"MI","long":"-85.207352","city":"Lake City"},"49610":{"lat":"44.771944","state":"MI","long":"-85.501389","city":"Acme"},"49631":{"lat":"43.888772","state":"MI","long":"-85.264935","city":"Evart"},"49673":{"lat":"44.962222","state":"MI","long":"-85.485278","city":"Old Mission"},"49611":{"lat":"44.974722","state":"MI","long":"-84.968611","city":"Alba"},"49632":{"lat":"44.252861","state":"MI","long":"-85.017002","city":"Falmouth"},"49653":{"lat":"44.985602","state":"MI","long":"-85.732866","city":"Lake Leelanau"},"49674":{"lat":"45.055556","state":"MI","long":"-85.588889","city":"Omena"},"49696":{"lat":"44.739","state":"MI","long":"-85.5143","city":"Traverse City"},"49612":{"lat":"44.877887","state":"MI","long":"-85.2241","city":"Alden"},"49633":{"lat":"44.572064","state":"MI","long":"-85.253122","city":"Fife Lake"},"49654":{"lat":"45.010215","state":"MI","long":"-86.092924","city":"Leland"},"49675":{"lat":"44.364576","state":"MI","long":"-86.209959","city":"Onekama"},"49613":{"lat":"44.523157","state":"MI","long":"-86.206057","city":"Arcadia"},"49634":{"lat":"44.215278","state":"MI","long":"-86.287222","city":"Filer City"},"49655":{"lat":"44.045656","state":"MI","long":"-85.430001","city":"Leroy"},"49676":{"lat":"44.844863","state":"MI","long":"-85.294318","city":"Rapid City"},"49635":{"lat":"44.631122","state":"MI","long":"-86.221201","city":"Frankfort"},"49656":{"lat":"44.054494","state":"MI","long":"-85.682631","city":"Luther"},"49677":{"lat":"43.886808","state":"MI","long":"-85.513028","city":"Reed City"},"49614":{"lat":"44.431125","state":"MI","long":"-86.142497","city":"Bear Lake"},"49657":{"lat":"44.21718","state":"MI","long":"-85.228252","city":"Mc Bain"},"49615":{"lat":"44.976469","state":"MI","long":"-85.226495","city":"Bellaire"},"49636":{"lat":"44.842927","state":"MI","long":"-86.035339","city":"Glen Arbor"},"49679":{"lat":"43.901747","state":"MI","long":"-85.188246","city":"Sears"},"49616":{"lat":"44.595502","state":"MI","long":"-86.096091","city":"Benzonia"},"49637":{"lat":"44.642779","state":"MI","long":"-85.71129","city":"Grawn"},"49680":{"lat":"44.640143","state":"MI","long":"-85.2472","city":"South Boardman"},"49617":{"lat":"44.646002","state":"MI","long":"-86.038346","city":"Beulah"},"49638":{"lat":"44.297163","state":"MI","long":"-85.739573","city":"Harrietta"},"49660":{"lat":"44.228323","state":"MI","long":"-86.28503","city":"Manistee"},"49659":{"lat":"44.911596","state":"MI","long":"-85.063399","city":"Mancelona"},"49618":{"lat":"44.291555","state":"MI","long":"-85.614383","city":"Boon"},"49640":{"lat":"44.69539","state":"MI","long":"-86.037582","city":"Honor"},"49639":{"lat":"43.84806","state":"MI","long":"-85.405926","city":"Hersey"},"49682":{"lat":"44.965613","state":"MI","long":"-85.642264","city":"Suttons Bay"},"49620":{"lat":"44.519856","state":"MI","long":"-85.693541","city":"Buckley"},"49619":{"lat":"44.296596","state":"MI","long":"-85.996396","city":"Brethren"},"49683":{"lat":"44.519833","state":"MI","long":"-85.945973","city":"Thompsonville"},"49621":{"lat":"44.836953","state":"MI","long":"-85.745344","city":"Cedar"},"49642":{"lat":"43.912621","state":"MI","long":"-85.716036","city":"Idlewild"},"49663":{"lat":"44.415222","state":"MI","long":"-85.42017","city":"Manton"},"49684":{"lat":"44.74365","state":"MI","long":"-85.618869","city":"Traverse City"}});