ComSquarepushJsonzips.load_zips({"50833":{"lat":"40.66829","state":"IA","long":"-94.732448","city":"Bedford"},"50845":{"lat":"40.822644","state":"IA","long":"-94.355156","city":"Diagonal"},"50801":{"lat":"41.062384","state":"IA","long":"-94.369151","city":"Creston"},"50857":{"lat":"40.954034","state":"IA","long":"-94.87309","city":"Nodaway"},"50846":{"lat":"41.289568","state":"IA","long":"-94.541904","city":"Fontanelle"},"50835":{"lat":"40.725836","state":"IA","long":"-94.393104","city":"Benton"},"50858":{"lat":"41.219191","state":"IA","long":"-94.370496","city":"Orient"},"50847":{"lat":"41.125799","state":"IA","long":"-94.984554","city":"Grant"},"50836":{"lat":"40.624242","state":"IA","long":"-94.504901","city":"Blockton"},"50860":{"lat":"40.605312","state":"IA","long":"-94.359451","city":"Redding"},"50859":{"lat":"41.024848","state":"IA","long":"-94.524901","city":"Prescott"},"50848":{"lat":"40.790914","state":"IA","long":"-94.750595","city":"Gravity"},"50837":{"lat":"41.157084","state":"IA","long":"-94.641011","city":"Bridgewater"},"50861":{"lat":"40.936636","state":"IA","long":"-94.250106","city":"Shannon City"},"50849":{"lat":"41.313311","state":"IA","long":"-94.440757","city":"Greenfield"},"50862":{"lat":"40.795042","state":"IA","long":"-94.641633","city":"Sharpsburg"},"50851":{"lat":"40.884096","state":"IA","long":"-94.56117","city":"Lenox"},"50840":{"lat":"40.793534","state":"IA","long":"-94.494439","city":"Clearfield"},"50839":{"lat":"41.05","state":"IA","long":"-94.823056","city":"Carbon"},"50863":{"lat":"40.851597","state":"IA","long":"-94.190823","city":"Tingley"},"50841":{"lat":"40.987121","state":"IA","long":"-94.735789","city":"Corning"},"50830":{"lat":"41.040146","state":"IA","long":"-94.194044","city":"Afton"},"50864":{"lat":"40.943718","state":"IA","long":"-94.979588","city":"Villisca"},"50853":{"lat":"41.249867","state":"IA","long":"-94.764872","city":"Massena"},"50842":{"lat":"41.039444","state":"IA","long":"-94.461667","city":"Cromwell"},"50831":{"lat":"40.949444","state":"IA","long":"-94.218889","city":"Arispe"},"50854":{"lat":"40.7142","state":"IA","long":"-94.232146","city":"Mount Ayr"},"50843":{"lat":"41.263165","state":"IA","long":"-94.871006","city":"Cumberland"}});