ComSquarepushJsonzips.load_zips({"51244":{"lat":"43.243889","state":"IA","long":"-95.935","city":"Matlock"},"51245":{"lat":"43.075892","state":"IA","long":"-95.653304","city":"Primghar"},"51234":{"lat":"43.20343","state":"IA","long":"-95.982309","city":"Boyden"},"51201":{"lat":"43.180797","state":"IA","long":"-95.840141","city":"Sheldon"},"51246":{"lat":"43.427192","state":"IA","long":"-96.178055","city":"Rock Rapids"},"51235":{"lat":"43.287183","state":"IA","long":"-96.201987","city":"Doon"},"51247":{"lat":"43.201356","state":"IA","long":"-96.310342","city":"Rock Valley"},"51248":{"lat":"43.189002","state":"IA","long":"-95.662227","city":"Sanborn"},"51237":{"lat":"43.343903","state":"IA","long":"-95.989383","city":"George"},"51249":{"lat":"43.406929","state":"IA","long":"-95.7424","city":"Sibley"},"51238":{"lat":"43.079337","state":"IA","long":"-95.914172","city":"Hospers"},"51250":{"lat":"43.081416","state":"IA","long":"-96.179952","city":"Sioux Center"},"51239":{"lat":"43.195201","state":"IA","long":"-96.139248","city":"Hull"},"51240":{"lat":"43.304747","state":"IA","long":"-96.436293","city":"Inwood"},"51241":{"lat":"43.438673","state":"IA","long":"-96.42522","city":"Larchwood"},"51230":{"lat":"43.320109","state":"IA","long":"-96.290994","city":"Alvord"},"51242":{"lat":"43.444722","state":"IA","long":"-96.332778","city":"Lester"},"51231":{"lat":"43.117917","state":"IA","long":"-95.741656","city":"Archer"},"51243":{"lat":"43.449571","state":"IA","long":"-95.892622","city":"Little Rock"},"51232":{"lat":"43.305259","state":"IA","long":"-95.765509","city":"Ashton"}});