ComSquarepushJsonzips.load_zips({"51365":{"lat":"43.312158","state":"IA","long":"-94.82057","city":"Wallingford"},"51354":{"lat":"43.39105","state":"IA","long":"-95.520366","city":"Ocheyedan"},"51343":{"lat":"43.033348","state":"IA","long":"-95.058184","city":"Greenville"},"51366":{"lat":"42.950189","state":"IA","long":"-94.995124","city":"Webb"},"51355":{"lat":"43.37938","state":"IA","long":"-95.153026","city":"Okoboji"},"51344":{"lat":"43.393333","state":"IA","long":"-94.705","city":"Gruver"},"51333":{"lat":"43.154836","state":"IA","long":"-94.985383","city":"Dickens"},"51345":{"lat":"43.456793","state":"IA","long":"-95.442603","city":"Harris"},"51334":{"lat":"43.401709","state":"IA","long":"-94.818001","city":"Estherville"},"51301":{"lat":"43.145107","state":"IA","long":"-95.14569","city":"Spencer"},"51357":{"lat":"43.048751","state":"IA","long":"-95.267856","city":"Royal"},"51346":{"lat":"43.179984","state":"IA","long":"-95.481696","city":"Hartley"},"51358":{"lat":"43.144845","state":"IA","long":"-94.884214","city":"Ruthven"},"51347":{"lat":"43.445239","state":"IA","long":"-95.321601","city":"Lake Park"},"51360":{"lat":"43.426211","state":"IA","long":"-95.112336","city":"Spirit Lake"},"51338":{"lat":"43.160917","state":"IA","long":"-95.322777","city":"Everly"},"51350":{"lat":"43.284496","state":"IA","long":"-95.592951","city":"Melvin"},"51351":{"lat":"43.31964","state":"IA","long":"-95.161534","city":"Milford"},"51340":{"lat":"43.225857","state":"IA","long":"-95.185042","city":"Fostoria"},"51363":{"lat":"43.450317","state":"IA","long":"-94.964935","city":"Superior"},"51341":{"lat":"43.015833","state":"IA","long":"-95.037222","city":"Gillett Grove"},"51364":{"lat":"43.324073","state":"IA","long":"-94.973725","city":"Terril"},"51342":{"lat":"43.227731","state":"IA","long":"-94.733401","city":"Graettinger"},"51331":{"lat":"43.36358","state":"IA","long":"-95.131261","city":"Arnolds Park"}});