ComSquarepushJsonzips.load_zips({"51563":{"lat":"41.56473","state":"IA","long":"-95.56577","city":"Persia"},"51552":{"lat":"41.454681","state":"IA","long":"-95.097308","city":"Marne"},"51541":{"lat":"41.125426","state":"IA","long":"-95.458629","city":"Henderson"},"51530":{"lat":"41.792483","state":"IA","long":"-95.421045","city":"Earling"},"51529":{"lat":"41.842301","state":"IA","long":"-95.615709","city":"Dunlap"},"51575":{"lat":"41.220679","state":"IA","long":"-95.617041","city":"Treynor"},"51564":{"lat":"41.821376","state":"IA","long":"-95.919172","city":"Pisgah"},"51553":{"lat":"41.465355","state":"IA","long":"-95.551887","city":"Minden"},"51542":{"lat":"41.463045","state":"IA","long":"-95.8802","city":"Honey Creek"},"51531":{"lat":"41.582871","state":"IA","long":"-95.070015","city":"Elk Horn"},"51520":{"lat":"41.950406","state":"IA","long":"-95.46233","city":"Arion"},"51576":{"lat":"41.360294","state":"IA","long":"-95.626997","city":"Underwood"},"51565":{"lat":"41.648385","state":"IA","long":"-95.510751","city":"Portsmouth"},"51554":{"lat":"41.110171","state":"IA","long":"-95.755699","city":"Mineola"},"51543":{"lat":"41.635214","state":"IA","long":"-95.055324","city":"Kimballton"},"51532":{"lat":"41.130617","state":"IA","long":"-95.160237","city":"Elliott"},"51521":{"lat":"41.476834","state":"IA","long":"-95.350872","city":"Avoca"},"51510":{"lat":"41.292524","state":"IA","long":"-95.91406","city":"Carter Lake"},"51577":{"lat":"41.462329","state":"IA","long":"-95.217973","city":"Walnut"},"51566":{"lat":"41.007949","state":"IA","long":"-95.226924","city":"Red Oak"},"51555":{"lat":"41.564399","state":"IA","long":"-95.891346","city":"Missouri Valley"},"51544":{"lat":"41.296289","state":"IA","long":"-95.062024","city":"Lewis"},"51533":{"lat":"41.028439","state":"IA","long":"-95.410624","city":"Emerson"},"51578":{"lat":"41.718014","state":"IA","long":"-95.386978","city":"Westphalia"},"51556":{"lat":"41.637143","state":"IA","long":"-95.985225","city":"Modale"},"51545":{"lat":"41.808267","state":"IA","long":"-96.031357","city":"Little Sioux"},"51534":{"lat":"41.047009","state":"IA","long":"-95.73892","city":"Glenwood"},"51523":{"lat":"41.923662","state":"IA","long":"-96.082663","city":"Blencoe"},"51501":{"lat":"41.252954","state":"IA","long":"-95.880992","city":"Council Bluffs"},"51579":{"lat":"41.737267","state":"IA","long":"-95.700785","city":"Woodbine"},"51557":{"lat":"41.708876","state":"IA","long":"-96.007204","city":"Mondamin"},"51546":{"lat":"41.624345","state":"IA","long":"-95.752478","city":"Logan"},"51535":{"lat":"41.223842","state":"IA","long":"-95.098989","city":"Griswold"},"51502":{"lat":"41.261944","state":"IA","long":"-95.860833","city":"Council Bluffs"},"51591":{"lat":"41.009722","state":"IA","long":"-95.225278","city":"Red Oak"},"51558":{"lat":"41.918601","state":"IA","long":"-95.829031","city":"Moorhead"},"51536":{"lat":"41.383238","state":"IA","long":"-95.344528","city":"Hancock"},"51525":{"lat":"41.225276","state":"IA","long":"-95.368086","city":"Carson"},"51503":{"lat":"41.261584","state":"IA","long":"-95.825083","city":"Council Bluffs"},"51570":{"lat":"41.533898","state":"IA","long":"-95.446888","city":"Shelby"},"51559":{"lat":"41.456383","state":"IA","long":"-95.679358","city":"Neola"},"51548":{"lat":"41.293168","state":"IA","long":"-95.681278","city":"Mc Clelland"},"51537":{"lat":"41.64375","state":"IA","long":"-95.311101","city":"Harlan"},"51526":{"lat":"41.364378","state":"IA","long":"-95.827648","city":"Crescent"},"51593":{"lat":"41.653056","state":"IA","long":"-95.325278","city":"Harlan"},"51571":{"lat":"41.113024","state":"IA","long":"-95.626912","city":"Silver City"},"51560":{"lat":"41.311964","state":"IA","long":"-95.379034","city":"Oakland"},"51549":{"lat":"41.191627","state":"IA","long":"-95.431386","city":"Macedonia"},"51527":{"lat":"41.827063","state":"IA","long":"-95.340293","city":"Defiance"},"51572":{"lat":"41.994188","state":"IA","long":"-95.782531","city":"Soldier"},"51561":{"lat":"41.027123","state":"IA","long":"-95.804645","city":"Pacific Junction"},"51550":{"lat":"41.708177","state":"IA","long":"-95.854955","city":"Magnolia"},"51528":{"lat":"41.913429","state":"IA","long":"-95.4862","city":"Dow City"},"51573":{"lat":"40.985924","state":"IA","long":"-95.09876","city":"Stanton"},"51562":{"lat":"41.728813","state":"IA","long":"-95.487046","city":"Panama"},"51551":{"lat":"41.007378","state":"IA","long":"-95.583988","city":"Malvern"},"51540":{"lat":"40.960514","state":"IA","long":"-95.553097","city":"Hastings"}});