ComSquarepushJsonzips.load_zips({"53080":{"lat":"43.391265","state":"WI","long":"-87.956765","city":"Saukville"},"53016":{"lat":"43.311389","state":"WI","long":"-88.72","city":"Clyman"},"53037":{"lat":"43.325243","state":"WI","long":"-88.162592","city":"Jackson"},"53058":{"lat":"43.111791","state":"WI","long":"-88.408913","city":"Nashotah"},"53079":{"lat":"43.807431","state":"WI","long":"-88.184482","city":"Saint Cloud"},"53081":{"lat":"43.740981","state":"WI","long":"-87.724667","city":"Sheboygan"},"53017":{"lat":"43.199767","state":"WI","long":"-88.240614","city":"Colgate"},"53038":{"lat":"43.075051","state":"WI","long":"-88.783602","city":"Johnson Creek"},"53060":{"lat":"43.431667","state":"WI","long":"-88.046389","city":"Newburg"},"53059":{"lat":"43.297841","state":"WI","long":"-88.520482","city":"Neosho"},"53082":{"lat":"43.750833","state":"WI","long":"-87.714444","city":"Sheboygan"},"53018":{"lat":"43.050019","state":"WI","long":"-88.397248","city":"Delafield"},"53040":{"lat":"43.521446","state":"WI","long":"-88.19253","city":"Kewaskum"},"53039":{"lat":"43.379199","state":"WI","long":"-88.684517","city":"Juneau"},"53061":{"lat":"43.944639","state":"WI","long":"-88.091083","city":"New Holstein"},"53083":{"lat":"43.788609","state":"WI","long":"-87.748552","city":"Sheboygan"},"53020":{"lat":"43.843553","state":"WI","long":"-87.97667","city":"Elkhart Lake"},"53019":{"lat":"43.695878","state":"WI","long":"-88.326607","city":"Eden"},"53062":{"lat":"43.95","state":"WI","long":"-88.084167","city":"New Holstein"},"53021":{"lat":"43.484319","state":"WI","long":"-87.982243","city":"Fredonia"},"53042":{"lat":"43.934105","state":"WI","long":"-87.995644","city":"Kiel"},"53063":{"lat":"43.983621","state":"WI","long":"-87.784764","city":"Newton"},"53085":{"lat":"43.726598","state":"WI","long":"-87.824228","city":"Sheboygan Falls"},"53001":{"lat":"43.615071","state":"WI","long":"-88.025394","city":"Adell"},"53022":{"lat":"43.218871","state":"WI","long":"-88.116508","city":"Germantown"},"53064":{"lat":"43.156111","state":"WI","long":"-88.370556","city":"North Lake"},"53086":{"lat":"43.332211","state":"WI","long":"-88.282377","city":"Slinger"},"53023":{"lat":"43.766611","state":"WI","long":"-88.104886","city":"Glenbeulah"},"53044":{"lat":"43.738096","state":"WI","long":"-87.78673","city":"Kohler"},"53065":{"lat":"43.686371","state":"WI","long":"-88.556919","city":"Oakfield"},"53002":{"lat":"43.468065","state":"WI","long":"-88.353901","city":"Allenton"},"53045":{"lat":"43.066791","state":"WI","long":"-88.146946","city":"Brookfield"},"53066":{"lat":"43.109497","state":"WI","long":"-88.486229","city":"Oconomowoc"},"53003":{"lat":"43.211944","state":"WI","long":"-88.516111","city":"Ashippun"},"53024":{"lat":"43.323146","state":"WI","long":"-87.952087","city":"Grafton"},"53088":{"lat":"44.071667","state":"WI","long":"-88.298889","city":"Stockbridge"},"53004":{"lat":"43.499465","state":"WI","long":"-87.850908","city":"Belgium"},"53046":{"lat":"43.149651","state":"WI","long":"-88.163863","city":"Lannon"},"53090":{"lat":"43.425278","state":"WI","long":"-88.183333","city":"West Bend"},"53089":{"lat":"43.144059","state":"WI","long":"-88.227064","city":"Sussex"},"53005":{"lat":"43.062173","state":"WI","long":"-88.098","city":"Brookfield"},"53026":{"lat":"43.776667","state":"WI","long":"-88.083889","city":"Greenbush"},"53047":{"lat":"43.255278","state":"WI","long":"-88.626667","city":"Lebanon"},"53091":{"lat":"43.504477","state":"WI","long":"-88.447766","city":"Theresa"},"53006":{"lat":"43.610934","state":"WI","long":"-88.509729","city":"Brownsville"},"53027":{"lat":"43.315749","state":"WI","long":"-88.370727","city":"Hartford"},"53048":{"lat":"43.588489","state":"WI","long":"-88.441309","city":"Lomira"},"53070":{"lat":"43.622939","state":"WI","long":"-87.796955","city":"Oostburg"},"53069":{"lat":"43.113011","state":"WI","long":"-88.432287","city":"Okauchee"},"53092":{"lat":"43.225145","state":"WI","long":"-87.959357","city":"Thiensville"},"53007":{"lat":"43.105405","state":"WI","long":"-88.071043","city":"Butler"},"53050":{"lat":"43.504496","state":"WI","long":"-88.545084","city":"Mayville"},"53049":{"lat":"43.869002","state":"WI","long":"-88.307289","city":"Malone"},"53093":{"lat":"43.657087","state":"WI","long":"-87.97217","city":"Waldo"},"53008":{"lat":"43.060556","state":"WI","long":"-88.106389","city":"Brookfield"},"53029":{"lat":"43.117153","state":"WI","long":"-88.344572","city":"Hartland"},"53051":{"lat":"43.160174","state":"WI","long":"-88.112774","city":"Menomonee Falls"},"53072":{"lat":"43.078777","state":"WI","long":"-88.272922","city":"Pewaukee"},"53094":{"lat":"43.192971","state":"WI","long":"-88.71851","city":"Watertown"},"53010":{"lat":"43.604183","state":"WI","long":"-88.272855","city":"Campbellsport"},"53031":{"lat":"43.638889","state":"WI","long":"-87.914167","city":"Hingham"},"53052":{"lat":"43.178889","state":"WI","long":"-88.117222","city":"Menomonee Falls"},"53073":{"lat":"43.75258","state":"WI","long":"-87.977906","city":"Plymouth"},"53095":{"lat":"43.422444","state":"WI","long":"-88.184549","city":"West Bend"},"53011":{"lat":"43.659106","state":"WI","long":"-88.094658","city":"Cascade"},"53032":{"lat":"43.446859","state":"WI","long":"-88.631049","city":"Horicon"},"53074":{"lat":"43.395463","state":"WI","long":"-87.879659","city":"Port Washington"},"53012":{"lat":"43.303413","state":"WI","long":"-88.002867","city":"Cedarburg"},"53033":{"lat":"43.234269","state":"WI","long":"-88.231147","city":"Hubertus"},"53075":{"lat":"43.567206","state":"WI","long":"-87.981553","city":"Random Lake"},"53097":{"lat":"43.236389","state":"WI","long":"-87.984444","city":"Mequon"},"53034":{"lat":"43.345","state":"WI","long":"-88.601667","city":"Hustisford"},"53076":{"lat":"43.273925","state":"WI","long":"-88.215467","city":"Richfield"},"53013":{"lat":"43.575076","state":"WI","long":"-87.840108","city":"Cedar Grove"},"53098":{"lat":"43.194722","state":"WI","long":"-88.728889","city":"Watertown"},"53056":{"lat":"43.146667","state":"WI","long":"-88.306667","city":"Merton"},"53014":{"lat":"44.024242","state":"WI","long":"-88.182689","city":"Chilton"},"53035":{"lat":"43.393415","state":"WI","long":"-88.544072","city":"Iron Ridge"},"53099":{"lat":"43.370278","state":"WI","long":"-88.518611","city":"Woodland"},"53078":{"lat":"43.312144","state":"WI","long":"-88.452793","city":"Rubicon"},"53015":{"lat":"43.921732","state":"WI","long":"-87.767314","city":"Cleveland"},"53036":{"lat":"43.170667","state":"WI","long":"-88.580567","city":"Ixonia"},"53057":{"lat":"43.814211","state":"WI","long":"-88.239922","city":"Mount Calvary"}});