ComSquarepushJsonzips.load_zips({"53595":{"lat":"42.960278","state":"WI","long":"-90.13","city":"Dodgeville"},"53511":{"lat":"42.522871","state":"WI","long":"-89.039897","city":"Beloit"},"53532":{"lat":"43.235748","state":"WI","long":"-89.329652","city":"De Forest"},"53553":{"lat":"42.918419","state":"WI","long":"-90.279726","city":"Linden"},"53574":{"lat":"42.814344","state":"WI","long":"-89.643666","city":"New Glarus"},"53596":{"lat":"43.183611","state":"WI","long":"-89.213611","city":"Sun Prairie"},"53512":{"lat":"42.508333","state":"WI","long":"-89.031667","city":"Beloit"},"53533":{"lat":"42.969779","state":"WI","long":"-90.140433","city":"Dodgeville"},"53554":{"lat":"42.904432","state":"WI","long":"-90.441986","city":"Livingston"},"53575":{"lat":"42.929485","state":"WI","long":"-89.387002","city":"Oregon"},"53597":{"lat":"43.181828","state":"WI","long":"-89.45317","city":"Waunakee"},"53534":{"lat":"42.838605","state":"WI","long":"-89.064157","city":"Edgerton"},"53555":{"lat":"43.326964","state":"WI","long":"-89.555421","city":"Lodi"},"53576":{"lat":"42.627766","state":"WI","long":"-89.253292","city":"Orfordville"},"53598":{"lat":"43.214121","state":"WI","long":"-89.341469","city":"Windsor"},"53577":{"lat":"43.292693","state":"WI","long":"-90.055825","city":"Plain"},"53535":{"lat":"42.9675","state":"WI","long":"-90.264444","city":"Edmund"},"53556":{"lat":"43.220773","state":"WI","long":"-90.235229","city":"Lone Rock"},"53599":{"lat":"42.648611","state":"WI","long":"-89.8625","city":"Woodford"},"53578":{"lat":"43.295631","state":"WI","long":"-89.745233","city":"Prairie Du Sac"},"53515":{"lat":"43.132213","state":"WI","long":"-89.738974","city":"Black Earth"},"53536":{"lat":"42.773216","state":"WI","long":"-89.287712","city":"Evansville"},"53557":{"lat":"43.342018","state":"WI","long":"-88.787263","city":"Lowell"},"53580":{"lat":"42.859393","state":"WI","long":"-90.380361","city":"Rewey"},"53579":{"lat":"43.301278","state":"WI","long":"-88.857117","city":"Reeseville"},"53516":{"lat":"42.806186","state":"WI","long":"-89.855511","city":"Blanchardville"},"53537":{"lat":"42.670833","state":"WI","long":"-89.208889","city":"Footville"},"53558":{"lat":"43.010651","state":"WI","long":"-89.294773","city":"Mc Farland"},"53581":{"lat":"43.362714","state":"WI","long":"-90.391378","city":"Richland Center"},"53517":{"lat":"43.004964","state":"WI","long":"-89.834455","city":"Blue Mounds"},"53538":{"lat":"42.922902","state":"WI","long":"-88.846689","city":"Fort Atkinson"},"53560":{"lat":"43.184746","state":"WI","long":"-89.763616","city":"Mazomanie"},"53559":{"lat":"43.163639","state":"WI","long":"-89.075331","city":"Marshall"},"53582":{"lat":"43.007654","state":"WI","long":"-89.988946","city":"Ridgeway"},"53518":{"lat":"43.236567","state":"WI","long":"-90.587312","city":"Blue River"},"53540":{"lat":"43.223333","state":"WI","long":"-90.291389","city":"Gotham"},"53561":{"lat":"43.385527","state":"WI","long":"-89.632254","city":"Merrimac"},"53583":{"lat":"43.268558","state":"WI","long":"-89.741777","city":"Sauk City"},"53562":{"lat":"43.105196","state":"WI","long":"-89.507258","city":"Middleton"},"53520":{"lat":"42.611074","state":"WI","long":"-89.371409","city":"Brodhead"},"53541":{"lat":"42.575852","state":"WI","long":"-90.024344","city":"Gratiot"},"53584":{"lat":"43.278333","state":"WI","long":"-90.290833","city":"Sextonville"},"53521":{"lat":"42.842327","state":"WI","long":"-89.381814","city":"Brooklyn"},"53542":{"lat":"42.638611","state":"WI","long":"-89.161944","city":"Hanover"},"53563":{"lat":"42.779087","state":"WI","long":"-88.953087","city":"Milton"},"53585":{"lat":"42.519367","state":"WI","long":"-88.726522","city":"Sharon"},"53501":{"lat":"42.603889","state":"WI","long":"-89.071111","city":"Afton"},"53522":{"lat":"42.557872","state":"WI","long":"-89.78158","city":"Browntown"},"53543":{"lat":"43.052368","state":"WI","long":"-90.36501","city":"Highland"},"53586":{"lat":"42.57856","state":"WI","long":"-90.226619","city":"Shullsburg"},"53502":{"lat":"42.715535","state":"WI","long":"-89.435695","city":"Albany"},"53523":{"lat":"42.99176","state":"WI","long":"-89.020901","city":"Cambridge"},"53544":{"lat":"42.877321","state":"WI","long":"-89.912973","city":"Hollandale"},"53565":{"lat":"42.854696","state":"WI","long":"-90.164556","city":"Mineral Point"},"53587":{"lat":"42.582199","state":"WI","long":"-89.888844","city":"South Wayne"},"53503":{"lat":"43.152111","state":"WI","long":"-89.938614","city":"Arena"},"53545":{"lat":"42.691542","state":"WI","long":"-89.033124","city":"Janesville"},"53566":{"lat":"42.599076","state":"WI","long":"-89.6403","city":"Monroe"},"53588":{"lat":"43.18835","state":"WI","long":"-90.067608","city":"Spring Green"},"53504":{"lat":"42.695532","state":"WI","long":"-89.859834","city":"Argyle"},"53525":{"lat":"42.553481","state":"WI","long":"-88.870477","city":"Clinton"},"53546":{"lat":"42.668254","state":"WI","long":"-89.002534","city":"Janesville"},"53590":{"lat":"43.186901","state":"WI","long":"-89.222662","city":"Sun Prairie"},"53589":{"lat":"42.929007","state":"WI","long":"-89.223989","city":"Stoughton"},"53505":{"lat":"42.65979","state":"WI","long":"-88.837142","city":"Avalon"},"53526":{"lat":"42.966009","state":"WI","long":"-90.332408","city":"Cobb"},"53547":{"lat":"42.7052","state":"WI","long":"-89.0057","city":"Janesville"},"53506":{"lat":"43.157137","state":"WI","long":"-90.288859","city":"Avoca"},"53527":{"lat":"43.078405","state":"WI","long":"-89.201692","city":"Cottage Grove"},"53548":{"lat":"42.6806","state":"WI","long":"-89.0765","city":"Janesville"},"53570":{"lat":"42.741482","state":"WI","long":"-89.608069","city":"Monticello"},"53569":{"lat":"42.975745","state":"WI","long":"-90.44473","city":"Montfort"},"53507":{"lat":"43.015797","state":"WI","long":"-89.904229","city":"Barneveld"},"53528":{"lat":"43.113214","state":"WI","long":"-89.639665","city":"Cross Plains"},"53550":{"lat":"42.567874","state":"WI","long":"-89.502608","city":"Juda"},"53549":{"lat":"43.000557","state":"WI","long":"-88.807765","city":"Jefferson"},"53571":{"lat":"43.277222","state":"WI","long":"-89.359444","city":"Morrisonville"},"53593":{"lat":"42.999913","state":"WI","long":"-89.552247","city":"Verona"},"53529":{"lat":"43.242414","state":"WI","long":"-89.51174","city":"Dane"},"53551":{"lat":"43.081576","state":"WI","long":"-88.913335","city":"Lake Mills"},"53572":{"lat":"43.002022","state":"WI","long":"-89.741448","city":"Mount Horeb"},"53508":{"lat":"42.866906","state":"WI","long":"-89.53773","city":"Belleville"},"53530":{"lat":"42.687816","state":"WI","long":"-90.110648","city":"Darlington"},"53594":{"lat":"43.183171","state":"WI","long":"-88.983835","city":"Waterloo"},"53573":{"lat":"43.207375","state":"WI","long":"-90.456998","city":"Muscoda"},"53510":{"lat":"42.730784","state":"WI","long":"-90.335881","city":"Belmont"},"53531":{"lat":"43.057106","state":"WI","long":"-89.086199","city":"Deerfield"}});