ComSquarepushJsonzips.load_zips({"53827":{"lat":"43.057697","state":"WI","long":"-90.824539","city":"Woodman"},"53816":{"lat":"42.968862","state":"WI","long":"-90.86648","city":"Mount Hope"},"53805":{"lat":"43.139327","state":"WI","long":"-90.706101","city":"Boscobel"},"53817":{"lat":"42.940278","state":"WI","long":"-90.971944","city":"Patch Grove"},"53806":{"lat":"42.728791","state":"WI","long":"-90.960751","city":"Cassville"},"53818":{"lat":"42.73932","state":"WI","long":"-90.485406","city":"Platteville"},"53807":{"lat":"42.599073","state":"WI","long":"-90.474907","city":"Cuba City"},"53820":{"lat":"42.6884","state":"WI","long":"-90.700153","city":"Potosi"},"53808":{"lat":"42.627222","state":"WI","long":"-90.591944","city":"Dickeyville"},"53821":{"lat":"43.042649","state":"WI","long":"-91.119305","city":"Prairie Du Chien"},"53810":{"lat":"42.820372","state":"WI","long":"-91.000451","city":"Glen Haven"},"53809":{"lat":"42.988558","state":"WI","long":"-90.655009","city":"Fennimore"},"53811":{"lat":"42.535913","state":"WI","long":"-90.511782","city":"Hazel Green"},"53812":{"lat":"42.581389","state":"WI","long":"-90.6025","city":"Kieler"},"53801":{"lat":"42.920734","state":"WI","long":"-91.068502","city":"Bagley"},"53824":{"lat":"42.523611","state":"WI","long":"-90.539167","city":"Sinsinawa"},"53813":{"lat":"42.844469","state":"WI","long":"-90.710906","city":"Lancaster"},"53802":{"lat":"42.795","state":"WI","long":"-90.885278","city":"Beetown"},"53825":{"lat":"42.92142","state":"WI","long":"-90.607924","city":"Stitzer"},"53803":{"lat":"42.534901","state":"WI","long":"-90.338045","city":"Benton"},"53826":{"lat":"43.114264","state":"WI","long":"-90.923885","city":"Wauzeka"},"53804":{"lat":"42.872598","state":"WI","long":"-90.909905","city":"Bloomington"}});