ComSquarepushJsonzips.load_zips({"54157":{"lat":"45.045778","state":"WI","long":"-87.729795","city":"Peshtigo"},"54135":{"lat":"44.914635","state":"WI","long":"-88.635686","city":"Keshena"},"54124":{"lat":"44.901753","state":"WI","long":"-88.324221","city":"Gillett"},"54113":{"lat":"44.266581","state":"WI","long":"-88.313271","city":"Combined Locks"},"54102":{"lat":"45.498878","state":"WI","long":"-87.964256","city":"Amberg"},"54180":{"lat":"44.338377","state":"WI","long":"-88.121769","city":"Wrightstown"},"54169":{"lat":"44.173611","state":"WI","long":"-88.259722","city":"Sherwood"},"54136":{"lat":"44.27008","state":"WI","long":"-88.338374","city":"Kimberly"},"54125":{"lat":"45.646895","state":"WI","long":"-88.362901","city":"Goodman"},"54114":{"lat":"45.254053","state":"WI","long":"-88.061265","city":"Crivitz"},"54103":{"lat":"45.67261","state":"WI","long":"-88.490847","city":"Armstrong Creek"},"54170":{"lat":"44.497202","state":"WI","long":"-88.556236","city":"Shiocton"},"54159":{"lat":"45.193399","state":"WI","long":"-87.806243","city":"Porterfield"},"54137":{"lat":"44.763457","state":"WI","long":"-88.25933","city":"Krakow"},"54126":{"lat":"44.29373","state":"WI","long":"-88.027519","city":"Greenleaf"},"54115":{"lat":"44.438779","state":"WI","long":"-88.080613","city":"De Pere"},"54104":{"lat":"45.422819","state":"WI","long":"-88.175282","city":"Athelstane"},"54182":{"lat":"44.740278","state":"WI","long":"-88.444722","city":"Zachow"},"54171":{"lat":"44.710495","state":"WI","long":"-88.107605","city":"Sobieski"},"54160":{"lat":"44.120556","state":"WI","long":"-88.099167","city":"Potter"},"54149":{"lat":"45.199127","state":"WI","long":"-88.45828","city":"Mountain"},"54138":{"lat":"45.316285","state":"WI","long":"-88.503189","city":"Lakewood"},"54127":{"lat":"44.795556","state":"WI","long":"-88.270278","city":"Green Valley"},"54161":{"lat":"45.127317","state":"WI","long":"-88.139621","city":"Pound"},"54150":{"lat":"44.987323","state":"WI","long":"-88.861116","city":"Neopit"},"54139":{"lat":"44.940494","state":"WI","long":"-88.054308","city":"Lena"},"54128":{"lat":"44.852963","state":"WI","long":"-88.78873","city":"Gresham"},"54106":{"lat":"44.485595","state":"WI","long":"-88.444776","city":"Black Creek"},"54173":{"lat":"44.631944","state":"WI","long":"-88.039167","city":"Suamico"},"54162":{"lat":"44.66112","state":"WI","long":"-88.263447","city":"Pulaski"},"54151":{"lat":"45.765343","state":"WI","long":"-88.030927","city":"Niagara"},"54140":{"lat":"44.284248","state":"WI","long":"-88.311989","city":"Little Chute"},"54129":{"lat":"44.127129","state":"WI","long":"-88.206961","city":"Hilbert"},"54107":{"lat":"44.73794","state":"WI","long":"-88.439026","city":"Bonduel"},"54174":{"lat":"45.018551","state":"WI","long":"-88.362767","city":"Suring"},"54152":{"lat":"44.563056","state":"WI","long":"-88.463333","city":"Nichols"},"54141":{"lat":"44.67751","state":"WI","long":"-88.027245","city":"Little Suamico"},"54130":{"lat":"44.29561","state":"WI","long":"-88.271692","city":"Kaukauna"},"54119":{"lat":"45.600944","state":"WI","long":"-88.106669","city":"Dunbar"},"54175":{"lat":"45.314819","state":"WI","long":"-88.610743","city":"Townsend"},"54153":{"lat":"44.891359","state":"WI","long":"-87.891728","city":"Oconto"},"54131":{"lat":"44.386389","state":"WI","long":"-88.288611","city":"Freedom"},"54120":{"lat":"45.759652","state":"WI","long":"-88.364873","city":"Fence"},"54165":{"lat":"44.509096","state":"WI","long":"-88.317243","city":"Seymour"},"54154":{"lat":"44.875499","state":"WI","long":"-88.155528","city":"Oconto Falls"},"54143":{"lat":"45.087403","state":"WI","long":"-87.669684","city":"Marinette"},"54121":{"lat":"45.902724","state":"WI","long":"-88.228921","city":"Florence"},"54110":{"lat":"44.17792","state":"WI","long":"-88.083337","city":"Brillion"},"54177":{"lat":"45.349507","state":"WI","long":"-87.909877","city":"Wausaukee"},"54166":{"lat":"44.785133","state":"WI","long":"-88.603599","city":"Shawano"},"54155":{"lat":"44.516641","state":"WI","long":"-88.185851","city":"Oneida"},"54111":{"lat":"44.811027","state":"WI","long":"-88.418253","city":"Cecil"},"54156":{"lat":"45.607398","state":"WI","long":"-87.970363","city":"Pembine"},"54123":{"lat":"44.20613","state":"WI","long":"-88.151716","city":"Forest Junction"},"54112":{"lat":"45.072157","state":"WI","long":"-88.058667","city":"Coleman"},"54101":{"lat":"44.78693","state":"WI","long":"-88.057101","city":"Abrams"}});