ComSquarepushJsonzips.load_zips({"54982":{"lat":"44.065576","state":"WI","long":"-89.266551","city":"Wautoma"},"54971":{"lat":"43.845402","state":"WI","long":"-88.842433","city":"Ripon"},"54960":{"lat":"43.898943","state":"WI","long":"-89.233572","city":"Neshkoro"},"54949":{"lat":"44.470148","state":"WI","long":"-88.916444","city":"Manawa"},"54927":{"lat":"44.099444","state":"WI","long":"-88.653889","city":"Butte Des Morts"},"54983":{"lat":"44.320973","state":"WI","long":"-88.941047","city":"Weyauwega"},"54961":{"lat":"44.392847","state":"WI","long":"-88.755428","city":"New London"},"54950":{"lat":"44.679414","state":"WI","long":"-88.876706","city":"Marion"},"54984":{"lat":"44.183433","state":"WI","long":"-89.195252","city":"Wild Rose"},"54962":{"lat":"44.467803","state":"WI","long":"-89.011851","city":"Ogdensburg"},"54940":{"lat":"44.237884","state":"WI","long":"-88.844852","city":"Fremont"},"54928":{"lat":"44.727574","state":"WI","long":"-88.888749","city":"Caroline"},"54906":{"lat":"43.947","state":"WI","long":"-88.5397","city":"Oshkosh"},"54985":{"lat":"44.075833","state":"WI","long":"-88.525","city":"Winnebago"},"54974":{"lat":"43.788903","state":"WI","long":"-88.641704","city":"Rosendale"},"54963":{"lat":"44.035678","state":"WI","long":"-88.751933","city":"Omro"},"54952":{"lat":"44.211164","state":"WI","long":"-88.417536","city":"Menasha"},"54941":{"lat":"43.844383","state":"WI","long":"-88.96847","city":"Green Lake"},"54930":{"lat":"44.027462","state":"WI","long":"-89.494332","city":"Coloma"},"54929":{"lat":"44.636442","state":"WI","long":"-88.742999","city":"Clintonville"},"54986":{"lat":"44.118704","state":"WI","long":"-88.721384","city":"Winneconne"},"54964":{"lat":"43.900917","state":"WI","long":"-88.713457","city":"Pickett"},"54942":{"lat":"44.299747","state":"WI","long":"-88.569579","city":"Greenville"},"54931":{"lat":"44.273056","state":"WI","long":"-88.678333","city":"Dale"},"54919":{"lat":"44.303207","state":"WI","long":"-88.374985","city":"Appleton"},"54976":{"lat":"44.176111","state":"WI","long":"-89.114444","city":"Saxeville"},"54965":{"lat":"44.160393","state":"WI","long":"-89.040415","city":"Pine River"},"54943":{"lat":"44.129743","state":"WI","long":"-89.534448","city":"Hancock"},"54932":{"lat":"43.841471","state":"WI","long":"-88.638827","city":"Eldorado"},"54921":{"lat":"44.30648","state":"WI","long":"-89.530438","city":"Bancroft"},"54909":{"lat":"44.289832","state":"WI","long":"-89.358364","city":"Almond"},"54977":{"lat":"44.460436","state":"WI","long":"-89.165042","city":"Scandinavia"},"54966":{"lat":"44.209079","state":"WI","long":"-89.455896","city":"Plainfield"},"54944":{"lat":"44.327306","state":"WI","long":"-88.62813","city":"Hortonville"},"54933":{"lat":"44.665556","state":"WI","long":"-88.707222","city":"Embarrass"},"54922":{"lat":"44.5348","state":"WI","long":"-88.740375","city":"Bear Creek"},"54911":{"lat":"44.277325","state":"WI","long":"-88.397649","city":"Appleton"},"54978":{"lat":"44.811812","state":"WI","long":"-88.907498","city":"Tilleda"},"54967":{"lat":"44.110069","state":"WI","long":"-88.926835","city":"Poy Sippi"},"54956":{"lat":"44.181094","state":"WI","long":"-88.479201","city":"Neenah"},"54945":{"lat":"44.532183","state":"WI","long":"-89.137311","city":"Iola"},"54934":{"lat":"44.004444","state":"WI","long":"-88.841667","city":"Eureka"},"54923":{"lat":"43.976936","state":"WI","long":"-88.949009","city":"Berlin"},"54912":{"lat":"44.2619","state":"WI","long":"-88.4152","city":"Appleton"},"54901":{"lat":"44.021962","state":"WI","long":"-88.543635","city":"Oshkosh"},"54990":{"lat":"44.508056","state":"WI","long":"-89.130556","city":"Iola"},"54979":{"lat":"43.873399","state":"WI","long":"-88.510008","city":"Van Dyne"},"54968":{"lat":"43.843827","state":"WI","long":"-89.124913","city":"Princeton"},"54957":{"lat":"44.185833","state":"WI","long":"-88.4625","city":"Neenah"},"54946":{"lat":"44.267332","state":"WI","long":"-89.113739","city":"King"},"54935":{"lat":"43.770446","state":"WI","long":"-88.429149","city":"Fond Du Lac"},"54913":{"lat":"44.315","state":"WI","long":"-88.4057","city":"Appleton"},"54902":{"lat":"43.9881","state":"WI","long":"-88.5538","city":"Oshkosh"},"54980":{"lat":"43.989167","state":"WI","long":"-88.771667","city":"Waukau"},"54969":{"lat":"44.2725","state":"WI","long":"-88.769722","city":"Readfield"},"54947":{"lat":"44.198421","state":"WI","long":"-88.696305","city":"Larsen"},"54936":{"lat":"43.773056","state":"WI","long":"-88.446944","city":"Fond Du Lac"},"54914":{"lat":"44.270992","state":"WI","long":"-88.432608","city":"Appleton"},"54903":{"lat":"43.9959","state":"WI","long":"-88.5635","city":"Oshkosh"},"54981":{"lat":"44.348101","state":"WI","long":"-89.110143","city":"Waupaca"},"54970":{"lat":"44.04381","state":"WI","long":"-89.098125","city":"Redgranite"},"54948":{"lat":"44.781188","state":"WI","long":"-88.872223","city":"Leopolis"},"54937":{"lat":"43.792633","state":"WI","long":"-88.481264","city":"Fond Du Lac"},"54926":{"lat":"44.615556","state":"WI","long":"-89.016111","city":"Big Falls"},"54915":{"lat":"44.26351","state":"WI","long":"-88.399902","city":"Appleton"},"54904":{"lat":"44.030356","state":"WI","long":"-88.607015","city":"Oshkosh"}});