ComSquarepushJsonzips.load_zips({"55979":{"lat":"43.958727","state":"MN","long":"-91.941737","city":"Utica"},"55917":{"lat":"43.897732","state":"MN","long":"-93.06081","city":"Blooming Prairie"},"55960":{"lat":"44.148861","state":"MN","long":"-92.48496","city":"Oronoco"},"55959":{"lat":"44.083222","state":"MN","long":"-91.741808","city":"Minnesota City"},"55981":{"lat":"44.370273","state":"MN","long":"-92.036058","city":"Wabasha"},"55940":{"lat":"43.892259","state":"MN","long":"-92.817489","city":"Hayfield"},"55939":{"lat":"43.566268","state":"MN","long":"-92.014511","city":"Harmony"},"55961":{"lat":"43.597188","state":"MN","long":"-92.415744","city":"Ostrander"},"55982":{"lat":"43.806958","state":"MN","long":"-92.873446","city":"Waltham"},"55983":{"lat":"44.31214","state":"MN","long":"-92.810258","city":"Wanamingo"},"55920":{"lat":"44.037333","state":"MN","long":"-92.630753","city":"Byron"},"55918":{"lat":"43.724761","state":"MN","long":"-92.873752","city":"Brownsdale"},"55941":{"lat":"43.750856","state":"MN","long":"-91.345472","city":"Hokah"},"55962":{"lat":"43.77691","state":"MN","long":"-91.844338","city":"Peterson"},"55921":{"lat":"43.622079","state":"MN","long":"-91.483657","city":"Caledonia"},"55919":{"lat":"43.670732","state":"MN","long":"-91.301226","city":"Brownsville"},"55942":{"lat":"44.021389","state":"MN","long":"-91.556389","city":"Homer"},"55963":{"lat":"44.211009","state":"MN","long":"-92.661347","city":"Pine Island"},"55985":{"lat":"44.151954","state":"MN","long":"-92.882495","city":"West Concord"},"55901":{"lat":"44.049572","state":"MN","long":"-92.48962","city":"Rochester"},"55922":{"lat":"43.566687","state":"MN","long":"-91.912957","city":"Canton"},"55943":{"lat":"43.792904","state":"MN","long":"-91.562565","city":"Houston"},"55964":{"lat":"44.16373","state":"MN","long":"-92.162125","city":"Plainview"},"55902":{"lat":"44.003217","state":"MN","long":"-92.483519","city":"Rochester"},"55923":{"lat":"43.836201","state":"MN","long":"-92.157351","city":"Chatfield"},"55944":{"lat":"44.024029","state":"MN","long":"-92.74642","city":"Kasson"},"55965":{"lat":"43.664132","state":"MN","long":"-92.096039","city":"Preston"},"55987":{"lat":"44.039132","state":"MN","long":"-91.653348","city":"Winona"},"55903":{"lat":"44.0216","state":"MN","long":"-92.4627","city":"Rochester"},"55924":{"lat":"44.05223","state":"MN","long":"-92.988839","city":"Claremont"},"55945":{"lat":"44.305396","state":"MN","long":"-92.00839","city":"Kellogg"},"55988":{"lat":"44.0275","state":"MN","long":"-91.769722","city":"Stockton"},"55925":{"lat":"43.914806","state":"MN","long":"-91.39404","city":"Dakota"},"55946":{"lat":"44.255237","state":"MN","long":"-93.019661","city":"Kenyon"},"55967":{"lat":"43.78997","state":"MN","long":"-92.531013","city":"Racine"},"55904":{"lat":"44.010545","state":"MN","long":"-92.397276","city":"Rochester"},"55990":{"lat":"43.71464","state":"MN","long":"-92.267921","city":"Wykoff"},"55947":{"lat":"43.830686","state":"MN","long":"-91.326325","city":"La Crescent"},"55968":{"lat":"44.402222","state":"MN","long":"-92.078889","city":"Reads Landing"},"55905":{"lat":"44.0213","state":"MN","long":"-92.4671","city":"Rochester"},"55926":{"lat":"43.715962","state":"MN","long":"-92.726764","city":"Dexter"},"55991":{"lat":"44.248812","state":"MN","long":"-92.403967","city":"Zumbro Falls"},"55969":{"lat":"44.102501","state":"MN","long":"-91.815795","city":"Rollingstone"},"55906":{"lat":"44.021001","state":"MN","long":"-92.446874","city":"Rochester"},"55927":{"lat":"44.032514","state":"MN","long":"-92.855376","city":"Dodge Center"},"55970":{"lat":"43.627423","state":"MN","long":"-92.862082","city":"Rose Creek"},"55992":{"lat":"44.303179","state":"MN","long":"-92.671863","city":"Zumbrota"},"55950":{"lat":"43.745278","state":"MN","long":"-92.97","city":"Lansing"},"55949":{"lat":"43.717447","state":"MN","long":"-91.987719","city":"Lanesboro"},"55971":{"lat":"43.821626","state":"MN","long":"-91.75365","city":"Rushford"},"55951":{"lat":"43.531533","state":"MN","long":"-92.506464","city":"Le Roy"},"55972":{"lat":"43.958481","state":"MN","long":"-92.051738","city":"Saint Charles"},"55910":{"lat":"44.136114","state":"MN","long":"-91.974474","city":"Altura"},"55931":{"lat":"43.508056","state":"MN","long":"-91.461389","city":"Eitzen"},"55929":{"lat":"44.001457","state":"MN","long":"-92.141511","city":"Dover"},"55952":{"lat":"43.970193","state":"MN","long":"-91.866162","city":"Lewiston"},"55973":{"lat":"43.808976","state":"MN","long":"-92.759517","city":"Sargeant"},"55909":{"lat":"43.559119","state":"MN","long":"-92.730494","city":"Adams"},"55932":{"lat":"44.135837","state":"MN","long":"-92.253493","city":"Elgin"},"55953":{"lat":"43.530868","state":"MN","long":"-92.932818","city":"Lyle"},"55974":{"lat":"43.562339","state":"MN","long":"-91.636788","city":"Spring Grove"},"55912":{"lat":"43.669538","state":"MN","long":"-92.978374","city":"Austin"},"55933":{"lat":"43.634806","state":"MN","long":"-92.710407","city":"Elkton"},"55954":{"lat":"43.544611","state":"MN","long":"-91.780636","city":"Mabel"},"55975":{"lat":"43.682288","state":"MN","long":"-92.367985","city":"Spring Valley"},"55934":{"lat":"44.004294","state":"MN","long":"-92.244068","city":"Eyota"},"55955":{"lat":"44.070195","state":"MN","long":"-92.757962","city":"Mantorville"},"55976":{"lat":"43.867345","state":"MN","long":"-92.454654","city":"Stewartville"},"55935":{"lat":"43.728404","state":"MN","long":"-92.142288","city":"Fountain"},"55956":{"lat":"44.264568","state":"MN","long":"-92.520683","city":"Mazeppa"},"55977":{"lat":"43.545783","state":"MN","long":"-92.633455","city":"Taopi"},"55936":{"lat":"43.710065","state":"MN","long":"-92.569203","city":"Grand Meadow"},"55957":{"lat":"44.235862","state":"MN","long":"-92.267188","city":"Millville"}});