ComSquarepushJsonzips.load_zips({"56762":{"lat":"48.20784","state":"MN","long":"-96.759702","city":"Warren"},"56751":{"lat":"48.826809","state":"MN","long":"-95.756709","city":"Roseau"},"56740":{"lat":"48.969223","state":"MN","long":"-97.149032","city":"Noyes"},"56729":{"lat":"48.666895","state":"MN","long":"-96.596899","city":"Halma"},"56763":{"lat":"48.911144","state":"MN","long":"-95.353843","city":"Warroad"},"56741":{"lat":"49.313466","state":"MN","long":"-94.849209","city":"Oak Island"},"56742":{"lat":"47.82861","state":"MN","long":"-95.861693","city":"Oklee"},"56731":{"lat":"48.921111","state":"MN","long":"-97.093056","city":"Humboldt"},"56720":{"lat":"48.579792","state":"MN","long":"-96.857894","city":"Donaldson"},"56754":{"lat":"48.010871","state":"MN","long":"-96.224914","city":"Saint Hilaire"},"56732":{"lat":"48.591592","state":"MN","long":"-96.551116","city":"Karlstad"},"56721":{"lat":"47.931802","state":"MN","long":"-97.021262","city":"East Grand Forks"},"56710":{"lat":"48.201968","state":"MN","long":"-96.991457","city":"Alvarado"},"56755":{"lat":"48.945825","state":"MN","long":"-97.170307","city":"Saint Vincent"},"56744":{"lat":"48.20657","state":"MN","long":"-97.116252","city":"Oslo"},"56733":{"lat":"48.633686","state":"MN","long":"-96.961407","city":"Kennedy"},"56722":{"lat":"48.033804","state":"MN","long":"-96.921496","city":"Euclid"},"56711":{"lat":"49.324924","state":"MN","long":"-95.090248","city":"Angle Inlet"},"56756":{"lat":"48.852213","state":"MN","long":"-95.535594","city":"Salol"},"56734":{"lat":"48.77868","state":"MN","long":"-96.643145","city":"Lake Bronson"},"56723":{"lat":"47.838145","state":"MN","long":"-96.880312","city":"Fisher"},"56701":{"lat":"48.110391","state":"MN","long":"-96.167019","city":"Thief River Falls"},"56757":{"lat":"48.452488","state":"MN","long":"-96.867392","city":"Stephen"},"56735":{"lat":"48.881968","state":"MN","long":"-96.813729","city":"Lancaster"},"56724":{"lat":"48.410416","state":"MN","long":"-95.790305","city":"Gatzke"},"56713":{"lat":"48.331418","state":"MN","long":"-96.867096","city":"Argyle"},"56758":{"lat":"48.45256","state":"MN","long":"-96.472266","city":"Strandquist"},"56736":{"lat":"47.657597","state":"MN","long":"-96.177823","city":"Mentor"},"56725":{"lat":"48.068586","state":"MN","long":"-95.728344","city":"Goodridge"},"56714":{"lat":"48.791294","state":"MN","long":"-96.096523","city":"Badger"},"56759":{"lat":"48.626556","state":"MN","long":"-96.109604","city":"Strathcona"},"56748":{"lat":"47.911324","state":"MN","long":"-95.964558","city":"Plummer"},"56737":{"lat":"48.442593","state":"MN","long":"-96.12325","city":"Middle River"},"56726":{"lat":"48.695667","state":"MN","long":"-96.187091","city":"Greenbush"},"56715":{"lat":"47.812942","state":"MN","long":"-96.011663","city":"Brooks"},"56760":{"lat":"48.234881","state":"MN","long":"-96.474926","city":"Viking"},"56738":{"lat":"48.28945","state":"MN","long":"-96.255018","city":"Newfolden"},"56727":{"lat":"48.307068","state":"MN","long":"-95.639805","city":"Grygla"},"56716":{"lat":"47.779694","state":"MN","long":"-96.593078","city":"Crookston"},"56761":{"lat":"48.64515","state":"MN","long":"-95.7072","city":"Wannaska"},"56750":{"lat":"47.882285","state":"MN","long":"-96.268097","city":"Red Lake Falls"},"56728":{"lat":"48.774855","state":"MN","long":"-96.944486","city":"Hallock"}});