ComSquarepushJsonzips.load_zips({"58381":{"lat":"47.891285","state":"ND","long":"-98.680956","city":"Warwick"},"58370":{"lat":"47.977363","state":"ND","long":"-98.918058","city":"Saint Michael"},"58348":{"lat":"47.95074","state":"ND","long":"-99.543061","city":"Maddock"},"58382":{"lat":"48.322852","state":"ND","long":"-98.873944","city":"Webster"},"58338":{"lat":"48.522892","state":"ND","long":"-98.654316","city":"Hampden"},"58327":{"lat":"48.053028","state":"ND","long":"-98.621236","city":"Crary"},"58316":{"lat":"48.837862","state":"ND","long":"-99.768754","city":"Belcourt"},"58372":{"lat":"48.945921","state":"ND","long":"-98.960562","city":"Sarles"},"58361":{"lat":"47.769558","state":"ND","long":"-98.326035","city":"Pekin"},"58339":{"lat":"48.86648","state":"ND","long":"-99.383259","city":"Hansboro"},"58317":{"lat":"48.555196","state":"ND","long":"-99.363592","city":"Bisbee"},"58384":{"lat":"48.606205","state":"ND","long":"-100.296802","city":"Willow City"},"58362":{"lat":"48.227106","state":"ND","long":"-99.065509","city":"Penn"},"58351":{"lat":"48.069777","state":"ND","long":"-99.274323","city":"Minnewaukan"},"58329":{"lat":"48.84801","state":"ND","long":"-100.031105","city":"Dunseith"},"58318":{"lat":"48.845137","state":"ND","long":"-100.432894","city":"Bottineau"},"58385":{"lat":"48.480937","state":"ND","long":"-99.662756","city":"Wolford"},"58374":{"lat":"47.818386","state":"ND","long":"-99.058326","city":"Sheyenne"},"58363":{"lat":"48.681601","state":"ND","long":"-99.383076","city":"Perth"},"58352":{"lat":"48.654605","state":"ND","long":"-98.842646","city":"Munich"},"58341":{"lat":"47.768121","state":"ND","long":"-99.932941","city":"Harvey"},"58330":{"lat":"48.43084","state":"ND","long":"-98.445756","city":"Edmore"},"58319":{"lat":"47.727212","state":"ND","long":"-99.371564","city":"Bremen"},"58386":{"lat":"48.321709","state":"ND","long":"-99.550489","city":"York"},"58353":{"lat":"48.635981","state":"ND","long":"-99.632878","city":"Mylo"},"58331":{"lat":"48.635537","state":"ND","long":"-99.111475","city":"Egeland"},"58365":{"lat":"48.821569","state":"ND","long":"-99.179628","city":"Rocklake"},"58343":{"lat":"48.338812","state":"ND","long":"-99.671274","city":"Knox"},"58332":{"lat":"48.072022","state":"ND","long":"-99.703388","city":"Esmond"},"58321":{"lat":"48.225527","state":"ND","long":"-98.355854","city":"Brocket"},"58310":{"lat":"48.622778","state":"ND","long":"-99.492778","city":"Agate"},"58377":{"lat":"48.448802","state":"ND","long":"-98.853903","city":"Starkweather"},"58366":{"lat":"48.655224","state":"ND","long":"-99.874375","city":"Rolette"},"58355":{"lat":"48.578333","state":"ND","long":"-98.371667","city":"Nekoma"},"58344":{"lat":"48.035714","state":"ND","long":"-98.341548","city":"Lakota"},"58311":{"lat":"48.636847","state":"ND","long":"-98.622545","city":"Alsen"},"58367":{"lat":"48.859423","state":"ND","long":"-99.613386","city":"Rolla"},"58356":{"lat":"47.679385","state":"ND","long":"-99.078007","city":"New Rockford"},"58345":{"lat":"48.30326","state":"ND","long":"-98.414199","city":"Lawton"},"58323":{"lat":"48.80843","state":"ND","long":"-98.924236","city":"Calvin"},"58301":{"lat":"48.113162","state":"ND","long":"-98.861588","city":"Devils Lake"},"58379":{"lat":"47.923333","state":"ND","long":"-98.816667","city":"Tokio"},"58368":{"lat":"48.317264","state":"ND","long":"-99.998954","city":"Rugby"},"58357":{"lat":"47.948744","state":"ND","long":"-99.140129","city":"Oberon"},"58346":{"lat":"48.26681","state":"ND","long":"-99.440123","city":"Leeds"},"58335":{"lat":"47.98","state":"ND","long":"-98.9925","city":"Fort Totten"},"58324":{"lat":"48.485479","state":"ND","long":"-99.194553","city":"Cando"},"58313":{"lat":"48.166667","state":"ND","long":"-100.036667","city":"Balta"},"58380":{"lat":"47.802014","state":"ND","long":"-98.475218","city":"Tolna"},"58369":{"lat":"48.936588","state":"ND","long":"-99.76476","city":"Saint John"},"58325":{"lat":"48.286206","state":"ND","long":"-99.141187","city":"Churchs Ferry"}});