ComSquarepushJsonzips.load_zips({"59086":{"lat":"45.948351","state":"MT","long":"-110.606147","city":"Wilsall"},"59002":{"lat":"45.936997","state":"MT","long":"-108.680975","city":"Acton"},"59044":{"lat":"45.67451","state":"MT","long":"-108.769008","city":"Laurel"},"59065":{"lat":"45.419315","state":"MT","long":"-110.686399","city":"Pray"},"59087":{"lat":"46.943788","state":"MT","long":"-108.318373","city":"Winnett"},"59003":{"lat":"45.58275","state":"MT","long":"-106.279722","city":"Ashland"},"59024":{"lat":"46.13019","state":"MT","long":"-107.59585","city":"Custer"},"59066":{"lat":"45.429722","state":"MT","long":"-108.5325","city":"Pryor"},"59088":{"lat":"45.977937","state":"MT","long":"-108.153284","city":"Worden"},"59025":{"lat":"45.179698","state":"MT","long":"-106.87206","city":"Decker"},"59046":{"lat":"46.329058","state":"MT","long":"-108.995853","city":"Lavina"},"59067":{"lat":"45.97948","state":"MT","long":"-109.276093","city":"Rapelje"},"59004":{"lat":"45.594444","state":"MT","long":"-106.270278","city":"Ashland"},"59089":{"lat":"45.108904","state":"MT","long":"-107.430258","city":"Wyola"},"59047":{"lat":"45.654587","state":"MT","long":"-110.560907","city":"Livingston"},"59068":{"lat":"45.196522","state":"MT","long":"-109.268812","city":"Red Lodge"},"59026":{"lat":"45.464722","state":"MT","long":"-108.851667","city":"Edgar"},"59069":{"lat":"45.648462","state":"MT","long":"-109.468889","city":"Reed Point"},"59006":{"lat":"45.954699","state":"MT","long":"-108.123133","city":"Ballantine"},"59027":{"lat":"45.127557","state":"MT","long":"-110.798928","city":"Emigrant"},"59070":{"lat":"45.367235","state":"MT","long":"-109.176888","city":"Roberts"},"59007":{"lat":"45.15226","state":"MT","long":"-109.044704","city":"Bearcreek"},"59028":{"lat":"45.400217","state":"MT","long":"-109.582078","city":"Fishtail"},"59050":{"lat":"45.33218","state":"MT","long":"-107.734105","city":"Lodge Grass"},"59071":{"lat":"45.377232","state":"MT","long":"-109.44644","city":"Roscoe"},"59008":{"lat":"45.049827","state":"MT","long":"-109.078777","city":"Belfry"},"59030":{"lat":"45.0493","state":"MT","long":"-110.196258","city":"Gardiner"},"59029":{"lat":"45.40269","state":"MT","long":"-108.905658","city":"Fromberg"},"59072":{"lat":"46.422487","state":"MT","long":"-108.543846","city":"Roundup"},"59010":{"lat":"46.238286","state":"MT","long":"-107.205942","city":"Bighorn"},"59031":{"lat":"45.508557","state":"MT","long":"-107.364925","city":"Garryowen"},"59052":{"lat":"45.596334","state":"MT","long":"-109.935698","city":"Mc Leod"},"59073":{"lat":"46.445278","state":"MT","long":"-108.541111","city":"Roundup"},"59011":{"lat":"45.82827","state":"MT","long":"-109.963094","city":"Big Timber"},"59032":{"lat":"47.025894","state":"MT","long":"-108.827059","city":"Grass Range"},"59053":{"lat":"46.458149","state":"MT","long":"-110.432397","city":"Martinsdale"},"59074":{"lat":"46.272367","state":"MT","long":"-109.276121","city":"Ryegate"},"59012":{"lat":"45.286204","state":"MT","long":"-106.509496","city":"Birney"},"59033":{"lat":"45.792631","state":"MT","long":"-109.674601","city":"Greycliff"},"59054":{"lat":"46.598611","state":"MT","long":"-107.871389","city":"Melstone"},"59075":{"lat":"45.488996","state":"MT","long":"-107.709242","city":"Saint Xavier"},"59013":{"lat":"45.457778","state":"MT","long":"-109.065833","city":"Boyd"},"59034":{"lat":"45.749843","state":"MT","long":"-107.607457","city":"Hardin"},"59055":{"lat":"46.036446","state":"MT","long":"-109.880885","city":"Melville"},"59076":{"lat":"46.292778","state":"MT","long":"-107.233611","city":"Sanders"},"59014":{"lat":"45.285682","state":"MT","long":"-108.908217","city":"Bridger"},"59035":{"lat":"45.312778","state":"MT","long":"-107.936389","city":"Yellowtail"},"59077":{"lat":"47.032287","state":"MT","long":"-107.288623","city":"Sand Springs"},"59036":{"lat":"46.435556","state":"MT","long":"-109.833611","city":"Harlowton"},"59057":{"lat":"45.861503","state":"MT","long":"-108.973073","city":"Molt"},"59078":{"lat":"46.386921","state":"MT","long":"-109.597361","city":"Shawmut"},"59015":{"lat":"46.082101","state":"MT","long":"-108.809062","city":"Broadview"},"59058":{"lat":"46.900453","state":"MT","long":"-107.789149","city":"Mosby"},"59079":{"lat":"45.94608","state":"MT","long":"-108.342634","city":"Shepherd"},"59016":{"lat":"45.554139","state":"MT","long":"-106.872311","city":"Busby"},"59037":{"lat":"45.89049","state":"MT","long":"-108.284981","city":"Huntley"},"59081":{"lat":"45.006944","state":"MT","long":"-109.988889","city":"Silver Gate"},"59038":{"lat":"46.276483","state":"MT","long":"-107.307196","city":"Hysham"},"59059":{"lat":"46.517125","state":"MT","long":"-108.003122","city":"Musselshell"},"59082":{"lat":"45.738333","state":"MT","long":"-110.226389","city":"Springdale"},"59018":{"lat":"45.886944","state":"MT","long":"-110.603056","city":"Clyde Park"},"59039":{"lat":"46.654196","state":"MT","long":"-107.551749","city":"Ingomar"},"59061":{"lat":"45.441022","state":"MT","long":"-109.827137","city":"Nye"},"59083":{"lat":"46.618333","state":"MT","long":"-107.550556","city":"Sumatra"},"59020":{"lat":"45.016667","state":"MT","long":"-109.933333","city":"Cooke City"},"59019":{"lat":"45.626171","state":"MT","long":"-109.257126","city":"Columbus"},"59041":{"lat":"45.498763","state":"MT","long":"-108.94804","city":"Joliet"},"59062":{"lat":"45.445803","state":"MT","long":"-106.008667","city":"Otter"},"59084":{"lat":"47.036667","state":"MT","long":"-108.596111","city":"Teigen"},"59063":{"lat":"45.632864","state":"MT","long":"-108.929279","city":"Park City"},"59085":{"lat":"46.446513","state":"MT","long":"-109.899483","city":"Two Dot"},"59001":{"lat":"45.515356","state":"MT","long":"-109.469171","city":"Absarokee"},"59022":{"lat":"45.629594","state":"MT","long":"-107.497251","city":"Crow Agency"},"59043":{"lat":"45.603167","state":"MT","long":"-106.565424","city":"Lame Deer"},"59064":{"lat":"45.983847","state":"MT","long":"-107.915406","city":"Pompeys Pillar"}});