ComSquarepushJsonzips.load_zips({"62572":{"lat":"39.38383","state":"IL","long":"-89.647429","city":"Waggoner"},"62561":{"lat":"39.855239","state":"IL","long":"-89.541908","city":"Riverton"},"62550":{"lat":"39.616135","state":"IL","long":"-89.012776","city":"Moweaqua"},"62539":{"lat":"39.849929","state":"IL","long":"-89.251319","city":"Illiopolis"},"62517":{"lat":"39.591667","state":"IL","long":"-89.423889","city":"Bulpitt"},"62573":{"lat":"39.939737","state":"IL","long":"-89.068316","city":"Warrensburg"},"62551":{"lat":"39.858175","state":"IL","long":"-89.170071","city":"Niantic"},"62540":{"lat":"39.588611","state":"IL","long":"-89.414444","city":"Kincaid"},"62563":{"lat":"39.759047","state":"IL","long":"-89.547208","city":"Rochester"},"62541":{"lat":"39.970556","state":"IL","long":"-89.35","city":"Lake Fork"},"62530":{"lat":"39.567684","state":"IL","long":"-89.654654","city":"Divernon"},"62518":{"lat":"40.058202","state":"IL","long":"-89.190014","city":"Chestnut"},"62553":{"lat":"39.288408","state":"IL","long":"-89.083636","city":"Oconee"},"62531":{"lat":"39.661223","state":"IL","long":"-89.377884","city":"Edinburg"},"62520":{"lat":"39.85629","state":"IL","long":"-89.460329","city":"Dawson"},"62519":{"lat":"39.937222","state":"IL","long":"-89.402222","city":"Cornland"},"62565":{"lat":"39.404873","state":"IL","long":"-88.804615","city":"Shelbyville"},"62554":{"lat":"39.935135","state":"IL","long":"-88.854675","city":"Oreana"},"62543":{"lat":"39.97111","state":"IL","long":"-89.172492","city":"Latham"},"62532":{"lat":"39.778889","state":"IL","long":"-88.98","city":"Elwin"},"62521":{"lat":"39.827137","state":"IL","long":"-88.925984","city":"Decatur"},"62510":{"lat":"39.509489","state":"IL","long":"-89.039807","city":"Assumption"},"62555":{"lat":"39.477508","state":"IL","long":"-89.195071","city":"Owaneco"},"62544":{"lat":"39.704093","state":"IL","long":"-88.988026","city":"Macon"},"62533":{"lat":"39.453048","state":"IL","long":"-89.642718","city":"Farmersville"},"62522":{"lat":"39.843237","state":"IL","long":"-88.986139","city":"Decatur"},"62567":{"lat":"39.640482","state":"IL","long":"-89.191328","city":"Stonington"},"62556":{"lat":"39.470817","state":"IL","long":"-89.425555","city":"Palmer"},"62545":{"lat":"39.77771","state":"IL","long":"-89.417692","city":"Mechanicsburg"},"62534":{"lat":"39.503253","state":"IL","long":"-88.756208","city":"Findlay"},"62523":{"lat":"39.841694","state":"IL","long":"-88.953435","city":"Decatur"},"62512":{"lat":"40.143652","state":"IL","long":"-89.194801","city":"Beason"},"62501":{"lat":"39.991581","state":"IL","long":"-88.821371","city":"Argenta"},"62568":{"lat":"39.554516","state":"IL","long":"-89.313357","city":"Taylorville"},"62557":{"lat":"39.388124","state":"IL","long":"-89.078165","city":"Pana"},"62546":{"lat":"39.415336","state":"IL","long":"-89.45407","city":"Morrisonville"},"62535":{"lat":"39.9325","state":"IL","long":"-88.951111","city":"Forsyth"},"62524":{"lat":"39.9045","state":"IL","long":"-88.9642","city":"Decatur"},"62513":{"lat":"39.697813","state":"IL","long":"-89.113558","city":"Blue Mound"},"62558":{"lat":"39.590966","state":"IL","long":"-89.578955","city":"Pawnee"},"62547":{"lat":"39.762845","state":"IL","long":"-89.235672","city":"Mount Auburn"},"62536":{"lat":"39.632713","state":"IL","long":"-89.658144","city":"Glenarm"},"62525":{"lat":"39.8426","state":"IL","long":"-88.9525","city":"Decatur"},"62514":{"lat":"39.762824","state":"IL","long":"-89.072061","city":"Boody"},"62570":{"lat":"39.588889","state":"IL","long":"-89.456111","city":"Tovey"},"62548":{"lat":"40.004482","state":"IL","long":"-89.293482","city":"Mount Pulaski"},"62537":{"lat":"39.853889","state":"IL","long":"-89.083889","city":"Harristown"},"62526":{"lat":"39.877413","state":"IL","long":"-88.953515","city":"Decatur"},"62515":{"lat":"39.847201","state":"IL","long":"-89.388846","city":"Buffalo"},"62571":{"lat":"39.36576","state":"IL","long":"-88.974517","city":"Tower Hill"},"62560":{"lat":"39.310551","state":"IL","long":"-89.585135","city":"Raymond"},"62549":{"lat":"39.778883","state":"IL","long":"-88.870207","city":"Mt Zion"},"62538":{"lat":"39.371865","state":"IL","long":"-89.53804","city":"Harvel"}});