ComSquarepushJsonzips.load_zips({"64869":{"lat":"37.246944","state":"MO","long":"-94.599167","city":"Waco"},"64858":{"lat":"36.896111","state":"MO","long":"-94.527222","city":"Racine"},"64847":{"lat":"36.605956","state":"MO","long":"-94.4551","city":"Lanagan"},"64836":{"lat":"37.159686","state":"MO","long":"-94.311232","city":"Carthage"},"64803":{"lat":"37.1143","state":"MO","long":"-94.5151","city":"Joplin"},"64870":{"lat":"37.144","state":"MO","long":"-94.472683","city":"Webb City"},"64859":{"lat":"37.122477","state":"MO","long":"-94.161272","city":"Reeds"},"64848":{"lat":"37.17387","state":"MO","long":"-94.032874","city":"La Russell"},"64804":{"lat":"37.046454","state":"MO","long":"-94.510252","city":"Joplin"},"64849":{"lat":"37.256944","state":"MO","long":"-94.444167","city":"Neck City"},"64861":{"lat":"36.717546","state":"MO","long":"-94.109066","city":"Rocky Comfort"},"64850":{"lat":"36.870634","state":"MO","long":"-94.386218","city":"Neosho"},"64873":{"lat":"36.980702","state":"MO","long":"-94.132169","city":"Wentworth"},"64862":{"lat":"37.072382","state":"MO","long":"-94.11514","city":"Sarcoxie"},"64840":{"lat":"37.005993","state":"MO","long":"-94.32041","city":"Diamond"},"64874":{"lat":"36.765145","state":"MO","long":"-94.04916","city":"Wheaton"},"64863":{"lat":"36.531924","state":"MO","long":"-94.596141","city":"South West City"},"64841":{"lat":"37.083611","state":"MO","long":"-94.413333","city":"Duenweg"},"64830":{"lat":"37.238333","state":"MO","long":"-94.417222","city":"Alba"},"64864":{"lat":"37.023889","state":"MO","long":"-94.468056","city":"Saginaw"},"64853":{"lat":"36.876667","state":"MO","long":"-94.185278","city":"Newtonia"},"64842":{"lat":"36.825419","state":"MO","long":"-94.091203","city":"Fairview"},"64831":{"lat":"36.669224","state":"MO","long":"-94.476648","city":"Anderson"},"64865":{"lat":"36.844169","state":"MO","long":"-94.559367","city":"Seneca"},"64854":{"lat":"36.541668","state":"MO","long":"-94.490627","city":"Noel"},"64843":{"lat":"36.732335","state":"MO","long":"-94.39855","city":"Goodman"},"64832":{"lat":"37.294168","state":"MO","long":"-94.565484","city":"Asbury"},"64866":{"lat":"36.878538","state":"MO","long":"-94.154811","city":"Stark City"},"64855":{"lat":"37.243288","state":"MO","long":"-94.446246","city":"Oronogo"},"64844":{"lat":"36.906562","state":"MO","long":"-94.264349","city":"Granby"},"64833":{"lat":"37.194709","state":"MO","long":"-94.117043","city":"Avilla"},"64867":{"lat":"36.751553","state":"MO","long":"-94.20858","city":"Stella"},"64856":{"lat":"36.580243","state":"MO","long":"-94.351461","city":"Pineville"},"64834":{"lat":"37.179479","state":"MO","long":"-94.55502","city":"Carl Junction"},"64801":{"lat":"37.096858","state":"MO","long":"-94.505144","city":"Joplin"},"64868":{"lat":"36.664447","state":"MO","long":"-94.593437","city":"Tiff City"},"64857":{"lat":"37.242222","state":"MO","long":"-94.435","city":"Purcell"},"64835":{"lat":"37.150734","state":"MO","long":"-94.435938","city":"Carterville"},"64802":{"lat":"37.0914","state":"MO","long":"-94.5126","city":"Joplin"}});