ComSquarepushJsonzips.load_zips({"65335":{"lat":"38.501887","state":"MO","long":"-93.322358","city":"Ionia"},"65324":{"lat":"38.139586","state":"MO","long":"-92.95371","city":"Climax Springs"},"65302":{"lat":"38.704444","state":"MO","long":"-93.228056","city":"Sedalia"},"65347":{"lat":"39.010447","state":"MO","long":"-93.031102","city":"Nelson"},"65336":{"lat":"38.746932","state":"MO","long":"-93.556422","city":"Knob Noster"},"65325":{"lat":"38.453124","state":"MO","long":"-93.191529","city":"Cole Camp"},"65348":{"lat":"38.71607","state":"MO","long":"-93.010819","city":"Otterville"},"65337":{"lat":"38.775256","state":"MO","long":"-93.431266","city":"La Monte"},"65326":{"lat":"38.190564","state":"MO","long":"-93.147104","city":"Edwards"},"65360":{"lat":"38.52719","state":"MO","long":"-93.526864","city":"Windsor"},"65349":{"lat":"39.216273","state":"MO","long":"-93.054674","city":"Slater"},"65338":{"lat":"38.407271","state":"MO","long":"-93.3668","city":"Lincoln"},"65327":{"lat":"38.977778","state":"MO","long":"-93.493889","city":"Emma"},"65305":{"lat":"38.731683","state":"MO","long":"-93.572514","city":"Whiteman Air Force Base"},"65350":{"lat":"38.649973","state":"MO","long":"-93.108072","city":"Smithton"},"65339":{"lat":"39.195108","state":"MO","long":"-93.381325","city":"Malta Bend"},"65351":{"lat":"38.965953","state":"MO","long":"-93.424683","city":"Sweet Springs"},"65340":{"lat":"39.10983","state":"MO","long":"-93.196017","city":"Marshall"},"65329":{"lat":"38.610056","state":"MO","long":"-92.998606","city":"Florence"},"65330":{"lat":"39.244708","state":"MO","long":"-92.993222","city":"Gilliam"},"65320":{"lat":"39.069722","state":"MO","long":"-92.946389","city":"Arrow Rock"},"65354":{"lat":"38.637423","state":"MO","long":"-92.882265","city":"Syracuse"},"65332":{"lat":"38.618983","state":"MO","long":"-93.437395","city":"Green Ridge"},"65321":{"lat":"39.098776","state":"MO","long":"-93.428124","city":"Blackburn"},"65355":{"lat":"38.250186","state":"MO","long":"-93.337279","city":"Warsaw"},"65344":{"lat":"39.282095","state":"MO","long":"-93.19678","city":"Miami"},"65333":{"lat":"38.910581","state":"MO","long":"-93.332531","city":"Houstonia"},"65322":{"lat":"38.972659","state":"MO","long":"-92.968291","city":"Blackwater"},"65345":{"lat":"38.520726","state":"MO","long":"-93.227232","city":"Mora"},"65334":{"lat":"38.84944","state":"MO","long":"-93.215895","city":"Hughesville"},"65323":{"lat":"38.485842","state":"MO","long":"-93.645929","city":"Calhoun"},"65301":{"lat":"38.696076","state":"MO","long":"-93.232268","city":"Sedalia"}});