ComSquarepushJsonzips.load_zips({"65685":{"lat":"37.682843","state":"MO","long":"-93.100699","city":"Louisburg"},"65664":{"lat":"37.193333","state":"MO","long":"-93.625278","city":"Halltown"},"65601":{"lat":"37.505667","state":"MO","long":"-93.557642","city":"Aldrich"},"65622":{"lat":"37.549842","state":"MO","long":"-93.104228","city":"Buffalo"},"65686":{"lat":"36.63928","state":"MO","long":"-93.43721","city":"Kimberling City"},"65623":{"lat":"36.745066","state":"MO","long":"-93.912609","city":"Butterfield"},"65644":{"lat":"37.433591","state":"MO","long":"-93.020983","city":"Elkland"},"65603":{"lat":"37.531254","state":"MO","long":"-93.858718","city":"Arcola"},"65624":{"lat":"36.693776","state":"MO","long":"-93.524255","city":"Cape Fair"},"65645":{"lat":"37.4825","state":"MO","long":"-93.5375","city":"Eudora"},"65666":{"lat":"36.592625","state":"MO","long":"-92.367766","city":"Hardenville"},"65688":{"lat":"36.584925","state":"MO","long":"-91.735536","city":"Brandsville"},"65604":{"lat":"37.315972","state":"MO","long":"-93.57813","city":"Ash Grove"},"65625":{"lat":"36.678386","state":"MO","long":"-93.84667","city":"Cassville"},"65646":{"lat":"37.235428","state":"MO","long":"-93.689434","city":"Everton"},"65667":{"lat":"37.273453","state":"MO","long":"-92.518058","city":"Hartville"},"65690":{"lat":"36.565268","state":"MO","long":"-91.330991","city":"Couch"},"65689":{"lat":"37.131366","state":"MO","long":"-92.114409","city":"Cabool"},"65605":{"lat":"36.947661","state":"MO","long":"-93.71238","city":"Aurora"},"65626":{"lat":"36.60353","state":"MO","long":"-92.067773","city":"Caulfield"},"65647":{"lat":"36.681498","state":"MO","long":"-93.970209","city":"Exeter"},"65668":{"lat":"37.896853","state":"MO","long":"-93.297902","city":"Hermitage"},"65606":{"lat":"36.702543","state":"MO","long":"-91.392743","city":"Alton"},"65627":{"lat":"36.571013","state":"MO","long":"-93.017239","city":"Cedarcreek"},"65648":{"lat":"37.372143","state":"MO","long":"-93.142824","city":"Fair Grove"},"65669":{"lat":"36.94077","state":"MO","long":"-93.26802","city":"Highlandville"},"65692":{"lat":"36.605553","state":"MO","long":"-91.630411","city":"Koshkonong"},"65607":{"lat":"37.794167","state":"MO","long":"-93.804167","city":"Caplinger Mills"},"65650":{"lat":"37.780268","state":"MO","long":"-93.447131","city":"Flemington"},"65649":{"lat":"37.633496","state":"MO","long":"-93.606355","city":"Fair Play"},"65608":{"lat":"36.940717","state":"MO","long":"-92.676544","city":"Ava"},"65630":{"lat":"36.835283","state":"MO","long":"-93.101217","city":"Chestnutridge"},"65629":{"lat":"36.922041","state":"MO","long":"-93.045082","city":"Chadwick"},"65672":{"lat":"36.610727","state":"MO","long":"-93.228585","city":"Hollister"},"65631":{"lat":"37.034796","state":"MO","long":"-93.44747","city":"Clever"},"65652":{"lat":"37.14474","state":"MO","long":"-92.911148","city":"Fordland"},"65673":{"lat":"36.621111","state":"MO","long":"-93.215278","city":"Hollister"},"65610":{"lat":"37.062841","state":"MO","long":"-93.547629","city":"Billings"},"65653":{"lat":"36.69548","state":"MO","long":"-93.114968","city":"Forsyth"},"65674":{"lat":"37.792282","state":"MO","long":"-93.579531","city":"Humansville"},"65611":{"lat":"36.54321","state":"MO","long":"-93.429944","city":"Blue Eye"},"65609":{"lat":"36.53323","state":"MO","long":"-92.150679","city":"Bakersfield"},"65632":{"lat":"37.508472","state":"MO","long":"-92.7891","city":"Conway"},"65675":{"lat":"36.925425","state":"MO","long":"-93.476803","city":"Hurley"},"65612":{"lat":"37.221417","state":"MO","long":"-93.544722","city":"Bois D Arc"},"65633":{"lat":"36.925771","state":"MO","long":"-93.530339","city":"Crane"},"65654":{"lat":"37.017563","state":"MO","long":"-93.896144","city":"Freistatt"},"65613":{"lat":"37.608502","state":"MO","long":"-93.412631","city":"Bolivar"},"65634":{"lat":"38.023873","state":"MO","long":"-93.19781","city":"Cross Timbers"},"65655":{"lat":"36.590101","state":"MO","long":"-92.416151","city":"Gainesville"},"65676":{"lat":"36.574924","state":"MO","long":"-92.605277","city":"Isabella"},"65614":{"lat":"36.765908","state":"MO","long":"-92.915116","city":"Bradleyville"},"65635":{"lat":"37.510458","state":"MO","long":"-93.695562","city":"Dadeville"},"65656":{"lat":"36.819835","state":"MO","long":"-93.48113","city":"Galena"},"65615":{"lat":"36.643611","state":"MO","long":"-93.218333","city":"Branson"},"65636":{"lat":"37.1725","state":"MO","long":"-92.854167","city":"Diggins"},"65657":{"lat":"36.860997","state":"MO","long":"-92.9985","city":"Garrison"},"65680":{"lat":"36.670446","state":"MO","long":"-93.037733","city":"Kissee Mills"},"65616":{"lat":"36.655755","state":"MO","long":"-93.243789","city":"Branson"},"65637":{"lat":"36.756009","state":"MO","long":"-92.237796","city":"Dora"},"65658":{"lat":"36.562486","state":"MO","long":"-93.622988","city":"Golden"},"65679":{"lat":"36.642615","state":"MO","long":"-93.168256","city":"Kirbyville"},"65681":{"lat":"36.576725","state":"MO","long":"-93.451602","city":"Lampe"},"65617":{"lat":"37.472807","state":"MO","long":"-93.360279","city":"Brighton"},"65638":{"lat":"36.93193","state":"MO","long":"-92.366396","city":"Drury"},"65660":{"lat":"37.326214","state":"MO","long":"-92.264726","city":"Graff"},"65682":{"lat":"37.386605","state":"MO","long":"-93.86715","city":"Lockwood"},"65618":{"lat":"36.758966","state":"MO","long":"-92.402645","city":"Brixey"},"65640":{"lat":"37.703137","state":"MO","long":"-93.521605","city":"Dunnegan"},"65661":{"lat":"37.419662","state":"MO","long":"-93.840689","city":"Greenfield"},"65620":{"lat":"36.999002","state":"MO","long":"-92.969241","city":"Bruner"},"65619":{"lat":"37.127184","state":"MO","long":"-93.383467","city":"Brookline"},"65641":{"lat":"36.548035","state":"MO","long":"-93.733609","city":"Eagle Rock"},"65662":{"lat":"37.494667","state":"MO","long":"-92.600141","city":"Grovespring"},"65663":{"lat":"37.601795","state":"MO","long":"-93.241989","city":"Half Way"}});