ComSquarepushJsonzips.load_zips({"67357":{"lat":"37.338888","state":"KS","long":"-95.269288","city":"Parsons"},"67346":{"lat":"37.366824","state":"KS","long":"-96.439564","city":"Grenola"},"67335":{"lat":"37.266828","state":"KS","long":"-95.559019","city":"Cherryvale"},"67347":{"lat":"37.091655","state":"KS","long":"-95.941372","city":"Havana"},"67336":{"lat":"37.041817","state":"KS","long":"-95.079572","city":"Chetopa"},"67337":{"lat":"37.044056","state":"KS","long":"-95.632756","city":"Coffeyville"},"67360":{"lat":"37.056823","state":"KS","long":"-96.140376","city":"Peru"},"67349":{"lat":"37.48089","state":"KS","long":"-96.256298","city":"Howard"},"67361":{"lat":"37.12968","state":"KS","long":"-96.173248","city":"Sedan"},"67351":{"lat":"37.157629","state":"KS","long":"-95.601698","city":"Liberty"},"67340":{"lat":"37.058611","state":"KS","long":"-95.713056","city":"Dearing"},"67363":{"lat":"37.326944","state":"KS","long":"-95.715278","city":"Sycamore"},"67352":{"lat":"37.390455","state":"KS","long":"-96.081379","city":"Longton"},"67341":{"lat":"37.324324","state":"KS","long":"-95.411602","city":"Dennis"},"67330":{"lat":"37.187298","state":"KS","long":"-95.298302","city":"Altamont"},"67364":{"lat":"37.037778","state":"KS","long":"-95.821111","city":"Tyro"},"67353":{"lat":"37.364868","state":"KS","long":"-96.306875","city":"Moline"},"67342":{"lat":"37.056146","state":"KS","long":"-95.344159","city":"Edna"},"67354":{"lat":"37.209078","state":"KS","long":"-95.424712","city":"Mound Valley"},"67332":{"lat":"37.060096","state":"KS","long":"-95.211512","city":"Bartlett"},"67355":{"lat":"37.05133","state":"KS","long":"-96.01922","city":"Niotaze"},"67344":{"lat":"37.314571","state":"KS","long":"-95.913517","city":"Elk City"},"67333":{"lat":"37.022412","state":"KS","long":"-95.909128","city":"Caney"},"67356":{"lat":"37.182254","state":"KS","long":"-95.133458","city":"Oswego"},"67345":{"lat":"37.374514","state":"KS","long":"-96.195902","city":"Elk Falls"},"67334":{"lat":"37.020278","state":"KS","long":"-96.176389","city":"Chautauqua"},"67301":{"lat":"37.229247","state":"KS","long":"-95.716528","city":"Independence"}});