ComSquarepushJsonzips.load_zips({"67478":{"lat":"39.373074","state":"KS","long":"-97.948887","city":"Simpson"},"67467":{"lat":"39.129487","state":"KS","long":"-97.668778","city":"Minneapolis"},"67456":{"lat":"38.576058","state":"KS","long":"-97.67389","city":"Lindsborg"},"67445":{"lat":"39.362092","state":"KS","long":"-97.841829","city":"Glasco"},"67423":{"lat":"38.984416","state":"KS","long":"-97.981785","city":"Beverly"},"67401":{"lat":"38.823802","state":"KS","long":"-97.608787","city":"Salina"},"67490":{"lat":"38.813373","state":"KS","long":"-98.443216","city":"Wilson"},"67468":{"lat":"39.509219","state":"KS","long":"-97.249219","city":"Morganville"},"67457":{"lat":"38.407868","state":"KS","long":"-98.011317","city":"Little River"},"67446":{"lat":"39.495775","state":"KS","long":"-98.315508","city":"Glen Elder"},"67402":{"lat":"38.840278","state":"KS","long":"-97.611111","city":"Salina"},"67491":{"lat":"38.384518","state":"KS","long":"-97.896476","city":"Windom"},"67480":{"lat":"38.919359","state":"KS","long":"-97.351803","city":"Solomon"},"67458":{"lat":"39.174324","state":"KS","long":"-97.208662","city":"Longford"},"67447":{"lat":"39.420056","state":"KS","long":"-96.999424","city":"Green"},"67436":{"lat":"39.273122","state":"KS","long":"-97.771692","city":"Delphos"},"67425":{"lat":"38.785771","state":"KS","long":"-97.863002","city":"Brookville"},"67492":{"lat":"38.813064","state":"KS","long":"-96.961935","city":"Woodbine"},"67481":{"lat":"39.032443","state":"KS","long":"-98.373031","city":"Sylvan Grove"},"67470":{"lat":"38.896008","state":"KS","long":"-97.523012","city":"New Cambria"},"67459":{"lat":"38.565175","state":"KS","long":"-98.289954","city":"Lorraine"},"67448":{"lat":"38.704744","state":"KS","long":"-97.43384","city":"Gypsum"},"67437":{"lat":"39.502753","state":"KS","long":"-98.544117","city":"Downs"},"67482":{"lat":"39.008594","state":"KS","long":"-97.297367","city":"Talmage"},"67460":{"lat":"38.373732","state":"KS","long":"-97.654989","city":"Mcpherson"},"67449":{"lat":"38.702306","state":"KS","long":"-97.015491","city":"Herington"},"67438":{"lat":"38.503836","state":"KS","long":"-97.255532","city":"Durham"},"67427":{"lat":"38.501836","state":"KS","long":"-98.401629","city":"Bushton"},"67416":{"lat":"38.667596","state":"KS","long":"-97.62032","city":"Assaria"},"67483":{"lat":"38.553437","state":"KS","long":"-97.177388","city":"Tampa"},"67450":{"lat":"38.589955","state":"KS","long":"-98.415916","city":"Holyrood"},"67439":{"lat":"38.731219","state":"KS","long":"-98.205678","city":"Ellsworth"},"67428":{"lat":"38.385838","state":"KS","long":"-97.429072","city":"Canton"},"67417":{"lat":"39.447188","state":"KS","long":"-97.530411","city":"Aurora"},"67484":{"lat":"38.998318","state":"KS","long":"-97.828375","city":"Tescott"},"67473":{"lat":"39.419402","state":"KS","long":"-98.696081","city":"Osborne"},"67451":{"lat":"38.6776","state":"KS","long":"-97.106126","city":"Hope"},"67418":{"lat":"39.181572","state":"KS","long":"-98.071144","city":"Barnard"},"67485":{"lat":"39.343639","state":"KS","long":"-98.464391","city":"Tipton"},"67474":{"lat":"39.545545","state":"KS","long":"-98.690446","city":"Portis"},"67452":{"lat":"39.242964","state":"KS","long":"-98.401745","city":"Hunter"},"67441":{"lat":"38.906321","state":"KS","long":"-97.112222","city":"Enterprise"},"67430":{"lat":"39.511529","state":"KS","long":"-98.433458","city":"Cawker City"},"67475":{"lat":"38.577726","state":"KS","long":"-97.075874","city":"Ramona"},"67464":{"lat":"38.556028","state":"KS","long":"-97.838079","city":"Marquette"},"67442":{"lat":"38.664794","state":"KS","long":"-97.755411","city":"Falun"},"67431":{"lat":"38.972225","state":"KS","long":"-97.016961","city":"Chapman"},"67420":{"lat":"39.45446","state":"KS","long":"-98.111714","city":"Beloit"},"67487":{"lat":"39.224916","state":"KS","long":"-97.022851","city":"Wakefield"},"67476":{"lat":"38.474325","state":"KS","long":"-97.42719","city":"Roxbury"},"67454":{"lat":"38.709111","state":"KS","long":"-98.157468","city":"Kanopolis"},"67443":{"lat":"38.382377","state":"KS","long":"-97.53592","city":"Galva"},"67432":{"lat":"39.384354","state":"KS","long":"-97.127793","city":"Clay Center"},"67410":{"lat":"38.937144","state":"KS","long":"-97.20632","city":"Abilene"},"67466":{"lat":"39.348078","state":"KS","long":"-97.457911","city":"Miltonvale"},"67455":{"lat":"39.028644","state":"KS","long":"-98.140426","city":"Lincoln"},"67444":{"lat":"38.503655","state":"KS","long":"-98.185818","city":"Geneseo"},"67422":{"lat":"39.02239","state":"KS","long":"-97.603121","city":"Bennington"}});