ComSquarepushJsonzips.load_zips({"67764":{"lat":"39.061038","state":"KS","long":"-101.221569","city":"Winona"},"67753":{"lat":"39.462185","state":"KS","long":"-100.748982","city":"Rexford"},"67731":{"lat":"39.757941","state":"KS","long":"-101.531875","city":"Bird City"},"67743":{"lat":"39.384083","state":"KS","long":"-101.209587","city":"Levant"},"67732":{"lat":"39.36552","state":"KS","long":"-101.372973","city":"Brewster"},"67744":{"lat":"39.863037","state":"KS","long":"-100.960352","city":"Ludell"},"67733":{"lat":"39.357873","state":"KS","long":"-101.520999","city":"Edson"},"67756":{"lat":"39.773634","state":"KS","long":"-101.81226","city":"Saint Francis"},"67745":{"lat":"39.792304","state":"KS","long":"-101.322697","city":"Mc Donald"},"67734":{"lat":"39.429587","state":"KS","long":"-100.894781","city":"Gem"},"67701":{"lat":"39.383038","state":"KS","long":"-101.044169","city":"Colby"},"67757":{"lat":"39.521636","state":"KS","long":"-100.525695","city":"Selden"},"67735":{"lat":"39.349099","state":"KS","long":"-101.716396","city":"Goodland"},"67758":{"lat":"38.885661","state":"KS","long":"-101.743118","city":"Sharon Springs"},"67747":{"lat":"39.07896","state":"KS","long":"-101.034952","city":"Monument"},"67736":{"lat":"38.886969","state":"KS","long":"-100.486707","city":"Gove"},"67748":{"lat":"39.112102","state":"KS","long":"-100.858048","city":"Oakley"},"67737":{"lat":"39.103016","state":"KS","long":"-100.468038","city":"Grainfield"},"67749":{"lat":"39.827507","state":"KS","long":"-100.531389","city":"Oberlin"},"67738":{"lat":"39.085107","state":"KS","long":"-100.662052","city":"Grinnell"},"67761":{"lat":"38.874675","state":"KS","long":"-101.573474","city":"Wallace"},"67739":{"lat":"39.90356","state":"KS","long":"-100.813935","city":"Herndon"},"67762":{"lat":"38.864867","state":"KS","long":"-101.951162","city":"Weskan"},"67751":{"lat":"39.078832","state":"KS","long":"-100.34694","city":"Park"},"67740":{"lat":"39.332189","state":"KS","long":"-100.47583","city":"Hoxie"},"67752":{"lat":"39.036252","state":"KS","long":"-100.233739","city":"Quinter"},"67741":{"lat":"39.343753","state":"KS","long":"-102.001491","city":"Kanorado"},"67730":{"lat":"39.792607","state":"KS","long":"-101.031766","city":"Atwood"}});