ComSquarepushJsonzips.load_zips({"71075":{"lat":"33.00054","state":"LA","long":"-93.459563","city":"Springhill"},"71064":{"lat":"32.907419","state":"LA","long":"-93.690534","city":"Plain Dealing"},"71031":{"lat":"31.999988","state":"LA","long":"-92.961056","city":"Goldonna"},"71009":{"lat":"32.580833","state":"LA","long":"-93.8925","city":"Blanchard"},"71065":{"lat":"31.808577","state":"LA","long":"-93.513594","city":"Pleasant Hill"},"71043":{"lat":"32.896653","state":"LA","long":"-93.883425","city":"Hosston"},"71032":{"lat":"32.105","state":"LA","long":"-93.794064","city":"Grand Cane"},"71021":{"lat":"32.968889","state":"LA","long":"-93.450556","city":"Cullen"},"71066":{"lat":"31.872778","state":"LA","long":"-93.201111","city":"Powhatan"},"71055":{"lat":"32.632281","state":"LA","long":"-93.288587","city":"Minden"},"71044":{"lat":"32.993393","state":"LA","long":"-93.902186","city":"Ida"},"71033":{"lat":"32.424025","state":"LA","long":"-93.969252","city":"Greenwood"},"71078":{"lat":"32.284758","state":"LA","long":"-93.800277","city":"Stonewall"},"71067":{"lat":"32.579089","state":"LA","long":"-93.522577","city":"Princeton"},"71045":{"lat":"32.36127","state":"LA","long":"-93.184758","city":"Jamestown"},"71034":{"lat":"32.175249","state":"LA","long":"-93.30475","city":"Hall Summit"},"71023":{"lat":"32.490023","state":"LA","long":"-93.399585","city":"Doyline"},"71001":{"lat":"32.555643","state":"LA","long":"-92.924529","city":"Arcadia"},"71079":{"lat":"32.923802","state":"LA","long":"-92.821516","city":"Summerfield"},"71068":{"lat":"32.326302","state":"LA","long":"-93.298241","city":"Ringgold"},"71046":{"lat":"32.162173","state":"LA","long":"-93.951046","city":"Keatchie"},"71024":{"lat":"32.519164","state":"LA","long":"-93.21419","city":"Dubberly"},"71002":{"lat":"32.141667","state":"LA","long":"-93.098056","city":"Ashland"},"71080":{"lat":"32.545556","state":"LA","long":"-93.119167","city":"Taylor"},"71069":{"lat":"32.970079","state":"LA","long":"-93.988474","city":"Rodessa"},"71058":{"lat":"32.615278","state":"LA","long":"-93.286667","city":"Minden"},"71047":{"lat":"32.316059","state":"LA","long":"-93.888138","city":"Keithville"},"71003":{"lat":"32.645073","state":"LA","long":"-93.023875","city":"Athens"},"71070":{"lat":"32.156604","state":"LA","long":"-92.948606","city":"Saline"},"71048":{"lat":"32.845196","state":"LA","long":"-92.88781","city":"Lisbon"},"71037":{"lat":"32.550732","state":"LA","long":"-93.565742","city":"Haughton"},"71004":{"lat":"32.754393","state":"LA","long":"-93.850799","city":"Belcher"},"71082":{"lat":"32.866844","state":"LA","long":"-93.987312","city":"Vivian"},"71071":{"lat":"32.943361","state":"LA","long":"-93.440407","city":"Sarepta"},"71060":{"lat":"32.66258","state":"LA","long":"-93.973018","city":"Mooringsport"},"71049":{"lat":"31.994327","state":"LA","long":"-93.962733","city":"Logansport"},"71038":{"lat":"32.927807","state":"LA","long":"-93.069137","city":"Haynesville"},"71027":{"lat":"32.244968","state":"LA","long":"-93.691488","city":"Frierson"},"71016":{"lat":"32.245181","state":"LA","long":"-93.093576","city":"Castor"},"71072":{"lat":"32.971289","state":"LA","long":"-93.296264","city":"Shongaloo"},"71061":{"lat":"32.745107","state":"LA","long":"-93.983844","city":"Oil City"},"71050":{"lat":"32.0975","state":"LA","long":"-93.951944","city":"Longstreet"},"71039":{"lat":"32.447008","state":"LA","long":"-93.285192","city":"Heflin"},"71028":{"lat":"32.529874","state":"LA","long":"-93.070558","city":"Gibsland"},"71006":{"lat":"32.697617","state":"LA","long":"-93.69095","city":"Benton"},"71073":{"lat":"32.509539","state":"LA","long":"-93.300902","city":"Sibley"},"71051":{"lat":"32.388628","state":"LA","long":"-93.502615","city":"Elm Grove"},"71040":{"lat":"32.774883","state":"LA","long":"-93.028834","city":"Homer"},"71029":{"lat":"32.825055","state":"LA","long":"-93.829268","city":"Gilliam"},"71018":{"lat":"32.819011","state":"LA","long":"-93.425885","city":"Cotton Valley"},"71007":{"lat":"32.366179","state":"LA","long":"-94.003394","city":"Bethany"},"71063":{"lat":"31.896563","state":"LA","long":"-93.563361","city":"Pelican"},"71052":{"lat":"32.023863","state":"LA","long":"-93.698045","city":"Mansfield"},"71030":{"lat":"32.191705","state":"LA","long":"-93.829309","city":"Gloster"},"71019":{"lat":"32.050099","state":"LA","long":"-93.315644","city":"Coushatta"},"71008":{"lat":"32.252323","state":"LA","long":"-92.908402","city":"Bienville"}});