ComSquarepushJsonzips.load_zips({"72470":{"lat":"36.453615","state":"AR","long":"-90.728128","city":"Success"},"72459":{"lat":"36.202863","state":"AR","long":"-91.25934","city":"Ravenden"},"72437":{"lat":"35.81715","state":"AR","long":"-90.442327","city":"Lake City"},"72426":{"lat":"35.850118","state":"AR","long":"-90.035449","city":"Dell"},"72415":{"lat":"36.114874","state":"AR","long":"-91.117629","city":"Black Rock"},"72404":{"lat":"35.7843","state":"AR","long":"-90.7235","city":"Jonesboro"},"72482":{"lat":"36.245335","state":"AR","long":"-91.379226","city":"Williford"},"72471":{"lat":"35.827366","state":"AR","long":"-91.126358","city":"Swifton"},"72460":{"lat":"36.310384","state":"AR","long":"-91.209433","city":"Ravenden Springs"},"72449":{"lat":"36.179672","state":"AR","long":"-90.824069","city":"O Kean"},"72438":{"lat":"35.933216","state":"AR","long":"-90.195488","city":"Leachville"},"72427":{"lat":"35.868056","state":"AR","long":"-90.945556","city":"Egypt"},"72416":{"lat":"35.908592","state":"AR","long":"-90.784753","city":"Bono"},"72472":{"lat":"35.668914","state":"AR","long":"-90.518738","city":"Trumann"},"72461":{"lat":"36.267177","state":"AR","long":"-90.270201","city":"Rector"},"72450":{"lat":"36.060033","state":"AR","long":"-90.525093","city":"Paragould"},"72439":{"lat":"36.07","state":"AR","long":"-90.747778","city":"Light"},"72428":{"lat":"35.714707","state":"AR","long":"-90.218172","city":"Etowah"},"72417":{"lat":"35.91647","state":"AR","long":"-90.576228","city":"Brookland"},"72473":{"lat":"35.730678","state":"AR","long":"-91.200347","city":"Tuckerman"},"72462":{"lat":"36.362778","state":"AR","long":"-90.753611","city":"Reyno"},"72451":{"lat":"36.058333","state":"AR","long":"-90.5","city":"Paragould"},"72440":{"lat":"36.016639","state":"AR","long":"-91.254588","city":"Lynn"},"72474":{"lat":"36.043333","state":"AR","long":"-90.671111","city":"Walcott"},"72441":{"lat":"36.379909","state":"AR","long":"-90.394093","city":"Mc Dougal"},"72430":{"lat":"36.334766","state":"AR","long":"-90.225257","city":"Greenway"},"72429":{"lat":"35.513956","state":"AR","long":"-90.955001","city":"Fisher"},"72475":{"lat":"35.565278","state":"AR","long":"-90.933611","city":"Waldenburg"},"72464":{"lat":"36.454771","state":"AR","long":"-90.144991","city":"Saint Francis"},"72453":{"lat":"36.283045","state":"AR","long":"-90.670217","city":"Peach Orchard"},"72442":{"lat":"35.874885","state":"AR","long":"-90.180252","city":"Manila"},"72431":{"lat":"35.649722","state":"AR","long":"-91.073889","city":"Grubbs"},"72419":{"lat":"35.758951","state":"AR","long":"-90.335797","city":"Caraway"},"72476":{"lat":"36.077814","state":"AR","long":"-90.952809","city":"Walnut Ridge"},"72465":{"lat":"35.985965","state":"AR","long":"-90.880099","city":"Sedgwick"},"72454":{"lat":"36.386993","state":"AR","long":"-90.19261","city":"Piggott"},"72443":{"lat":"36.195117","state":"AR","long":"-90.38368","city":"Marmaduke"},"72432":{"lat":"35.572222","state":"AR","long":"-90.703752","city":"Harrisburg"},"72421":{"lat":"35.830145","state":"AR","long":"-90.941007","city":"Cash"},"72410":{"lat":"35.942327","state":"AR","long":"-91.081003","city":"Alicia"},"72466":{"lat":"36.090815","state":"AR","long":"-91.274456","city":"Smithville"},"72455":{"lat":"36.282876","state":"AR","long":"-90.996782","city":"Pocahontas"},"72444":{"lat":"36.438563","state":"AR","long":"-90.874921","city":"Maynard"},"72433":{"lat":"36.032573","state":"AR","long":"-90.971504","city":"Hoxie"},"72422":{"lat":"36.415532","state":"AR","long":"-90.58702","city":"Corning"},"72411":{"lat":"35.74559","state":"AR","long":"-90.550658","city":"Bay"},"72478":{"lat":"36.467531","state":"AR","long":"-91.038707","city":"Warm Springs"},"72467":{"lat":"35.914894","state":"AR","long":"-90.454245","city":"State University"},"72456":{"lat":"36.431725","state":"AR","long":"-90.275123","city":"Pollard"},"72445":{"lat":"35.976096","state":"AR","long":"-91.033704","city":"Minturn"},"72434":{"lat":"36.19763","state":"AR","long":"-91.185442","city":"Imboden"},"72412":{"lat":"36.183172","state":"AR","long":"-90.618084","city":"Beech Grove"},"72401":{"lat":"35.833016","state":"AR","long":"-90.696526","city":"Jonesboro"},"72479":{"lat":"35.629052","state":"AR","long":"-90.928928","city":"Weiner"},"72457":{"lat":"36.080699","state":"AR","long":"-91.068004","city":"Portia"},"72435":{"lat":"36.317647","state":"AR","long":"-90.599048","city":"Knobel"},"72424":{"lat":"36.389685","state":"AR","long":"-90.723117","city":"Datto"},"72413":{"lat":"36.342978","state":"AR","long":"-90.784467","city":"Biggers"},"72402":{"lat":"35.84261","state":"AR","long":"-90.70447","city":"Jonesboro"},"72469":{"lat":"35.972622","state":"AR","long":"-91.375398","city":"Strawberry"},"72458":{"lat":"36.080044","state":"AR","long":"-91.148214","city":"Powhatan"},"72447":{"lat":"35.900168","state":"AR","long":"-90.343658","city":"Monette"},"72436":{"lat":"36.21547","state":"AR","long":"-90.506973","city":"Lafe"},"72425":{"lat":"36.199485","state":"AR","long":"-90.734482","city":"Delaplaine"},"72414":{"lat":"35.835851","state":"AR","long":"-90.354227","city":"Black Oak"},"72403":{"lat":"35.84222","state":"AR","long":"-90.7043","city":"Jonesboro"}});