ComSquarepushJsonzips.load_zips({"72756":{"lat":"36.336316","state":"AR","long":"-94.114784","city":"Rogers"},"72745":{"lat":"36.243318","state":"AR","long":"-94.082725","city":"Lowell"},"72734":{"lat":"36.26516","state":"AR","long":"-94.475131","city":"Gentry"},"72712":{"lat":"36.357703","state":"AR","long":"-94.22242","city":"Bentonville"},"72701":{"lat":"36.052045","state":"AR","long":"-94.153395","city":"Fayetteville"},"72768":{"lat":"36.479434","state":"AR","long":"-94.452069","city":"Sulphur Springs"},"72757":{"lat":"36.3332","state":"AR","long":"-94.1245","city":"Rogers"},"72735":{"lat":"36.107523","state":"AR","long":"-93.987262","city":"Goshen"},"72702":{"lat":"35.9788","state":"AR","long":"-94.0805","city":"Fayetteville"},"72769":{"lat":"36.013827","state":"AR","long":"-94.500027","city":"Summers"},"72758":{"lat":"36.3053","state":"AR","long":"-94.1433","city":"Rogers"},"72747":{"lat":"36.401062","state":"AR","long":"-94.581278","city":"Maysville"},"72736":{"lat":"36.415513","state":"AR","long":"-94.477862","city":"Gravette"},"72714":{"lat":"36.465086","state":"AR","long":"-94.251969","city":"Bella Vista"},"72703":{"lat":"36.099183","state":"AR","long":"-94.17163","city":"Fayetteville"},"72770":{"lat":"36.177778","state":"AR","long":"-94.233333","city":"Tontitown"},"72760":{"lat":"35.849576","state":"AR","long":"-93.734743","city":"Saint Paul"},"72737":{"lat":"35.994167","state":"AR","long":"-94.175","city":"Greenland"},"72715":{"lat":"36.429167","state":"AR","long":"-94.231389","city":"Bella Vista"},"72704":{"lat":"36.0967","state":"AR","long":"-94.2373","city":"Fayetteville"},"72761":{"lat":"36.179969","state":"AR","long":"-94.528036","city":"Siloam Springs"},"72749":{"lat":"35.85373","state":"AR","long":"-94.425793","city":"Morrow"},"72738":{"lat":"36.142206","state":"AR","long":"-93.863339","city":"Hindsville"},"72727":{"lat":"36.017719","state":"AR","long":"-94.007323","city":"Elkins"},"72716":{"lat":"36.326554","state":"AR","long":"-94.181483","city":"Bentonville"},"72773":{"lat":"35.957264","state":"AR","long":"-93.911478","city":"Wesley"},"72762":{"lat":"36.183521","state":"AR","long":"-94.176216","city":"Springdale"},"72751":{"lat":"36.453884","state":"AR","long":"-94.118026","city":"Pea Ridge"},"72740":{"lat":"36.104348","state":"AR","long":"-93.727893","city":"Huntsville"},"72739":{"lat":"36.441589","state":"AR","long":"-94.338993","city":"Hiwasse"},"72728":{"lat":"36.206111","state":"AR","long":"-94.234167","city":"Elm Springs"},"72717":{"lat":"35.910992","state":"AR","long":"-94.3862","city":"Canehill"},"72774":{"lat":"35.908153","state":"AR","long":"-94.230375","city":"West Fork"},"72752":{"lat":"35.834562","state":"AR","long":"-93.618079","city":"Pettigrew"},"72741":{"lat":"36.132778","state":"AR","long":"-94.165278","city":"Johnson"},"72730":{"lat":"36.043635","state":"AR","long":"-94.253871","city":"Farmington"},"72729":{"lat":"35.819345","state":"AR","long":"-94.478936","city":"Evansville"},"72718":{"lat":"36.266771","state":"AR","long":"-94.207836","city":"Cave Springs"},"72764":{"lat":"36.177918","state":"AR","long":"-94.104682","city":"Springdale"},"72753":{"lat":"35.991809","state":"AR","long":"-94.316861","city":"Prairie Grove"},"72742":{"lat":"36.04845","state":"AR","long":"-93.504357","city":"Kingston"},"72719":{"lat":"36.366993","state":"AR","long":"-94.30891","city":"Centerton"},"72776":{"lat":"35.935583","state":"AR","long":"-93.621","city":"Witter"},"72765":{"lat":"36.18668","state":"AR","long":"-94.12868","city":"Springdale"},"72732":{"lat":"36.428817","state":"AR","long":"-93.951197","city":"Garfield"},"72721":{"lat":"35.848297","state":"AR","long":"-93.825218","city":"Combs"},"72766":{"lat":"36.18673","state":"AR","long":"-94.12922","city":"Springdale"},"72744":{"lat":"35.956931","state":"AR","long":"-94.42724","city":"Lincoln"},"72733":{"lat":"36.485751","state":"AR","long":"-93.935016","city":"Gateway"},"72722":{"lat":"36.334749","state":"AR","long":"-94.453411","city":"Decatur"},"72711":{"lat":"36.401944","state":"AR","long":"-94.070556","city":"Avoca"}});