ComSquarepushJsonzips.load_zips({"74465":{"lat":"35.915278","state":"OK","long":"-94.969722","city":"Tahlequah"},"74454":{"lat":"35.85674","state":"OK","long":"-95.508193","city":"Porter"},"74432":{"lat":"35.29114","state":"OK","long":"-95.647227","city":"Eufaula"},"74421":{"lat":"35.789595","state":"OK","long":"-96.026398","city":"Beggs"},"74477":{"lat":"35.959444","state":"OK","long":"-95.369167","city":"Wagoner"},"74455":{"lat":"35.363059","state":"OK","long":"-95.260661","city":"Porum"},"74444":{"lat":"36.031111","state":"OK","long":"-94.9575","city":"Moodys"},"74422":{"lat":"35.657652","state":"OK","long":"-95.660036","city":"Boynton"},"74467":{"lat":"35.954864","state":"OK","long":"-95.353956","city":"Wagoner"},"74456":{"lat":"35.711389","state":"OK","long":"-95.991389","city":"Preston"},"74445":{"lat":"35.661877","state":"OK","long":"-95.83186","city":"Morris"},"74434":{"lat":"35.794285","state":"OK","long":"-95.229734","city":"Fort Gibson"},"74423":{"lat":"35.657395","state":"OK","long":"-95.203326","city":"Braggs"},"74401":{"lat":"35.730661","state":"OK","long":"-95.375491","city":"Muskogee"},"74468":{"lat":"35.6125","state":"OK","long":"-95.564167","city":"Wainwright"},"74457":{"lat":"35.967111","state":"OK","long":"-94.744159","city":"Proctor"},"74446":{"lat":"35.850556","state":"OK","long":"-95.318056","city":"Okay"},"74435":{"lat":"35.541772","state":"OK","long":"-95.109474","city":"Gore"},"74402":{"lat":"35.747778","state":"OK","long":"-95.369444","city":"Muskogee"},"74469":{"lat":"35.494546","state":"OK","long":"-95.306434","city":"Warner"},"74458":{"lat":"35.885556","state":"OK","long":"-95.588611","city":"Redbird"},"74447":{"lat":"35.628805","state":"OK","long":"-95.96967","city":"Okmulgee"},"74436":{"lat":"35.810752","state":"OK","long":"-95.683981","city":"Haskell"},"74425":{"lat":"35.159258","state":"OK","long":"-95.653042","city":"Canadian"},"74403":{"lat":"35.741057","state":"OK","long":"-95.344907","city":"Muskogee"},"74470":{"lat":"35.513787","state":"OK","long":"-95.165881","city":"Webbers Falls"},"74459":{"lat":"35.521389","state":"OK","long":"-95.494722","city":"Rentiesville"},"74437":{"lat":"35.454476","state":"OK","long":"-95.976187","city":"Henryetta"},"74426":{"lat":"35.435786","state":"OK","long":"-95.535038","city":"Checotah"},"74471":{"lat":"35.881917","state":"OK","long":"-94.865326","city":"Welling"},"74460":{"lat":"35.514444","state":"OK","long":"-95.956389","city":"Schulter"},"74438":{"lat":"35.519722","state":"OK","long":"-95.751111","city":"Hitchita"},"74427":{"lat":"35.711622","state":"OK","long":"-94.913205","city":"Cookson"},"74472":{"lat":"35.25114","state":"OK","long":"-95.237493","city":"Whitefield"},"74461":{"lat":"35.381389","state":"OK","long":"-95.705575","city":"Stidham"},"74450":{"lat":"35.625014","state":"OK","long":"-95.485591","city":"Oktaha"},"74439":{"lat":"35.884","state":"OK","long":"-95.2332","city":"Braggs"},"74428":{"lat":"35.532175","state":"OK","long":"-95.711326","city":"Council Hill"},"74462":{"lat":"35.268561","state":"OK","long":"-95.10707","city":"Stigler"},"74451":{"lat":"35.797686","state":"OK","long":"-94.982173","city":"Park Hill"},"74440":{"lat":"35.268466","state":"OK","long":"-95.299382","city":"Hoyt"},"74429":{"lat":"35.957835","state":"OK","long":"-95.652597","city":"Coweta"},"74463":{"lat":"35.758059","state":"OK","long":"-95.54936","city":"Taft"},"74452":{"lat":"36.059061","state":"OK","long":"-94.991928","city":"Peggs"},"74441":{"lat":"35.925415","state":"OK","long":"-95.165095","city":"Hulbert"},"74430":{"lat":"35.123889","state":"OK","long":"-95.669722","city":"Crowder"},"74464":{"lat":"35.909385","state":"OK","long":"-94.97873","city":"Tahlequah"},"74442":{"lat":"35.093724","state":"OK","long":"-95.784479","city":"Indianola"},"74431":{"lat":"35.458056","state":"OK","long":"-95.941111","city":"Dewar"}});