ComSquarepushJsonzips.load_zips({"77873":{"lat":"30.538166","state":"TX","long":"-95.861053","city":"Richards"},"77862":{"lat":"30.786944","state":"TX","long":"-96.263889","city":"Kurten"},"77840":{"lat":"30.604476","state":"TX","long":"-96.31227","city":"College Station"},"77807":{"lat":"30.6626","state":"TX","long":"-96.4589","city":"Bryan"},"77863":{"lat":"30.386111","state":"TX","long":"-96.563056","city":"Lyons"},"77852":{"lat":"30.431944","state":"TX","long":"-96.755833","city":"Deanville"},"77841":{"lat":"30.61235","state":"TX","long":"-96.34023","city":"College Station"},"77830":{"lat":"30.544291","state":"TX","long":"-96.001822","city":"Anderson"},"77875":{"lat":"30.486944","state":"TX","long":"-95.986667","city":"Roans Prairie"},"77864":{"lat":"30.953335","state":"TX","long":"-95.909094","city":"Madisonville"},"77853":{"lat":"30.35786","state":"TX","long":"-96.824781","city":"Dime Box"},"77842":{"lat":"30.62823","state":"TX","long":"-96.33449","city":"College Station"},"77831":{"lat":"30.764059","state":"TX","long":"-95.933569","city":"Bedias"},"77808":{"lat":"30.774","state":"TX","long":"-96.3085","city":"Bryan"},"77876":{"lat":"30.613056","state":"TX","long":"-95.888056","city":"Shiro"},"77865":{"lat":"31.230889","state":"TX","long":"-96.237499","city":"Marquez"},"77843":{"lat":"30.614738","state":"TX","long":"-96.340001","city":"College Station"},"77866":{"lat":"30.468333","state":"TX","long":"-96.202222","city":"Millican"},"77855":{"lat":"31.150833","state":"TX","long":"-96.124167","city":"Flynn"},"77844":{"lat":"30.62771","state":"TX","long":"-96.33413","city":"College Station"},"77833":{"lat":"30.17736","state":"TX","long":"-96.402769","city":"Brenham"},"77878":{"lat":"30.488611","state":"TX","long":"-96.464167","city":"Snook"},"77867":{"lat":"30.734167","state":"TX","long":"-96.564722","city":"Mumford"},"77856":{"lat":"31.035013","state":"TX","long":"-96.442643","city":"Franklin"},"77845":{"lat":"30.511811","state":"TX","long":"-96.317113","city":"College Station"},"77834":{"lat":"30.166667","state":"TX","long":"-96.3975","city":"Brenham"},"77801":{"lat":"30.632698","state":"TX","long":"-96.36616","city":"Bryan"},"77879":{"lat":"30.407585","state":"TX","long":"-96.535825","city":"Somerville"},"77868":{"lat":"30.357645","state":"TX","long":"-96.059357","city":"Navasota"},"77857":{"lat":"30.785","state":"TX","long":"-96.721111","city":"Gause"},"77835":{"lat":"30.176744","state":"TX","long":"-96.592475","city":"Burton"},"77802":{"lat":"30.658171","state":"TX","long":"-96.335143","city":"Bryan"},"77880":{"lat":"30.31819","state":"TX","long":"-96.224948","city":"Washington"},"77869":{"lat":"30.387778","state":"TX","long":"-96.0875","city":"Navasota"},"77836":{"lat":"30.529819","state":"TX","long":"-96.714292","city":"Caldwell"},"77803":{"lat":"30.691293","state":"TX","long":"-96.371398","city":"Bryan"},"77881":{"lat":"30.535","state":"TX","long":"-96.301389","city":"Wellborn"},"77870":{"lat":"31.050833","state":"TX","long":"-96.428889","city":"New Baden"},"77859":{"lat":"30.86686","state":"TX","long":"-96.584256","city":"Hearne"},"77837":{"lat":"30.978211","state":"TX","long":"-96.67107","city":"Calvert"},"77882":{"lat":"30.8975","state":"TX","long":"-96.389722","city":"Wheelock"},"77871":{"lat":"31.087473","state":"TX","long":"-96.147274","city":"Normangee"},"77838":{"lat":"30.599167","state":"TX","long":"-96.770556","city":"Chriesman"},"77805":{"lat":"30.75517","state":"TX","long":"-96.33203","city":"Bryan"},"77872":{"lat":"30.928531","state":"TX","long":"-96.092486","city":"North Zulch"},"77861":{"lat":"30.732637","state":"TX","long":"-96.091075","city":"Iola"},"77850":{"lat":"31.263144","state":"TX","long":"-96.102643","city":"Concord"},"77806":{"lat":"30.75487","state":"TX","long":"-96.33201","city":"Bryan"}});