ComSquarepushJsonzips.load_zips({"78069":{"lat":"29.211561","state":"TX","long":"-98.621401","city":"Somerset"},"78058":{"lat":"30.213249","state":"TX","long":"-99.318607","city":"Mountain Home"},"78025":{"lat":"30.073126","state":"TX","long":"-99.269022","city":"Ingram"},"78014":{"lat":"28.439837","state":"TX","long":"-99.232818","city":"Cotulla"},"78003":{"lat":"29.72755","state":"TX","long":"-99.045279","city":"Bandera"},"78070":{"lat":"29.923815","state":"TX","long":"-98.378786","city":"Spring Branch"},"78059":{"lat":"29.211669","state":"TX","long":"-98.855158","city":"Natalia"},"78026":{"lat":"28.902985","state":"TX","long":"-98.544037","city":"Jourdanton"},"78015":{"lat":"29.794444","state":"TX","long":"-98.731667","city":"Boerne"},"78004":{"lat":"29.839873","state":"TX","long":"-98.593258","city":"Bergheim"},"78071":{"lat":"28.475646","state":"TX","long":"-98.178162","city":"Three Rivers"},"78060":{"lat":"28.464402","state":"TX","long":"-98.055392","city":"Oakville"},"78049":{"lat":"27.530495","state":"TX","long":"-99.469118","city":"Laredo"},"78027":{"lat":"29.940619","state":"TX","long":"-98.516556","city":"Kendalia"},"78016":{"lat":"29.152078","state":"TX","long":"-98.908994","city":"Devine"},"78005":{"lat":"29.053073","state":"TX","long":"-98.85823","city":"Bigfoot"},"78072":{"lat":"28.419755","state":"TX","long":"-98.569322","city":"Tilden"},"78061":{"lat":"28.892317","state":"TX","long":"-99.094361","city":"Pearsall"},"78050":{"lat":"29.072778","state":"TX","long":"-98.483889","city":"Leming"},"78039":{"lat":"29.308178","state":"TX","long":"-98.812466","city":"La Coste"},"78028":{"lat":"30.041647","state":"TX","long":"-99.140817","city":"Kerrville"},"78017":{"lat":"28.678201","state":"TX","long":"-99.174684","city":"Dilley"},"78006":{"lat":"29.77774","state":"TX","long":"-98.713406","city":"Boerne"},"78073":{"lat":"29.274979","state":"TX","long":"-98.667741","city":"Von Ormy"},"78062":{"lat":"28.739444","state":"TX","long":"-98.178333","city":"Peggy"},"78040":{"lat":"27.515538","state":"TX","long":"-99.498579","city":"Laredo"},"78029":{"lat":"30.047222","state":"TX","long":"-99.14","city":"Kerrville"},"78007":{"lat":"28.417682","state":"TX","long":"-98.407873","city":"Calliham"},"78074":{"lat":"29.950556","state":"TX","long":"-98.802778","city":"Waring"},"78063":{"lat":"29.631513","state":"TX","long":"-98.922118","city":"Lakehills"},"78052":{"lat":"29.236568","state":"TX","long":"-98.794489","city":"Lytle"},"78041":{"lat":"27.556933","state":"TX","long":"-99.490653","city":"Laredo"},"78019":{"lat":"28.051329","state":"TX","long":"-99.340902","city":"Encinal"},"78008":{"lat":"28.76699","state":"TX","long":"-98.256573","city":"Campbellton"},"78075":{"lat":"28.637316","state":"TX","long":"-98.256484","city":"Whitsett"},"78064":{"lat":"28.992368","state":"TX","long":"-98.483061","city":"Pleasanton"},"78042":{"lat":"27.5063","state":"TX","long":"-99.508","city":"Laredo"},"78009":{"lat":"29.35532","state":"TX","long":"-98.882391","city":"Castroville"},"78076":{"lat":"26.88966","state":"TX","long":"-99.250625","city":"Zapata"},"78065":{"lat":"29.099405","state":"TX","long":"-98.624071","city":"Poteet"},"78054":{"lat":"29.325556","state":"TX","long":"-98.690833","city":"Macdona"},"78043":{"lat":"27.481537","state":"TX","long":"-99.465488","city":"Laredo"},"78021":{"lat":"28.488666","state":"TX","long":"-98.851821","city":"Fowlerton"},"78010":{"lat":"29.939658","state":"TX","long":"-99.00714","city":"Center Point"},"78066":{"lat":"29.490395","state":"TX","long":"-98.866865","city":"Rio Medina"},"78055":{"lat":"29.790689","state":"TX","long":"-99.306431","city":"Medina"},"78044":{"lat":"27.9133","state":"TX","long":"-99.438","city":"Laredo"},"78022":{"lat":"28.320388","state":"TX","long":"-98.116159","city":"George West"},"78011":{"lat":"28.864871","state":"TX","long":"-98.707001","city":"Charlotte"},"78067":{"lat":"27.062523","state":"TX","long":"-99.427148","city":"San Ygnacio"},"78056":{"lat":"29.59105","state":"TX","long":"-98.882106","city":"Mico"},"78045":{"lat":"27.6136","state":"TX","long":"-99.5182","city":"Laredo"},"78023":{"lat":"29.592203","state":"TX","long":"-98.703534","city":"Helotes"},"78012":{"lat":"28.788889","state":"TX","long":"-98.496944","city":"Christine"},"78001":{"lat":"28.279722","state":"TX","long":"-99.284167","city":"Artesia Wells"},"78057":{"lat":"29.035377","state":"TX","long":"-98.987403","city":"Moore"},"78046":{"lat":"27.43","state":"TX","long":"-99.4664","city":"Laredo"},"78024":{"lat":"30.002694","state":"TX","long":"-99.482329","city":"Hunt"},"78013":{"lat":"29.979072","state":"TX","long":"-98.843772","city":"Comfort"},"78002":{"lat":"29.270501","state":"TX","long":"-98.74212","city":"Atascosa"}});