ComSquarepushJsonzips.load_zips({"79261":{"lat":"34.403644","state":"TX","long":"-100.844875","city":"Turkey"},"79250":{"lat":"33.876806","state":"TX","long":"-101.604591","city":"Petersburg"},"79239":{"lat":"34.672437","state":"TX","long":"-100.725921","city":"Lakeview"},"79251":{"lat":"34.917969","state":"TX","long":"-100.425243","city":"Quail"},"79240":{"lat":"34.901111","state":"TX","long":"-100.770278","city":"Lelia Lake"},"79229":{"lat":"33.627996","state":"TX","long":"-100.819695","city":"Dickens"},"79252":{"lat":"34.29555","state":"TX","long":"-99.749438","city":"Quanah"},"79241":{"lat":"34.145827","state":"TX","long":"-101.425934","city":"Lockney"},"79230":{"lat":"34.764354","state":"TX","long":"-100.028593","city":"Dodson"},"79231":{"lat":"33.941667","state":"TX","long":"-101.086111","city":"Dougherty"},"79220":{"lat":"33.771837","state":"TX","long":"-100.802131","city":"Afton"},"79243":{"lat":"33.741265","state":"TX","long":"-100.983293","city":"Mcadoo"},"79221":{"lat":"34.142222","state":"TX","long":"-101.525278","city":"Aiken"},"79255":{"lat":"34.379605","state":"TX","long":"-101.046458","city":"Quitaque"},"79244":{"lat":"34.052507","state":"TX","long":"-100.836138","city":"Matador"},"79233":{"lat":"34.546667","state":"TX","long":"-100.437778","city":"Estelline"},"79256":{"lat":"33.897669","state":"TX","long":"-100.852818","city":"Roaring Springs"},"79245":{"lat":"34.712237","state":"TX","long":"-100.534653","city":"Memphis"},"79234":{"lat":"34.232076","state":"TX","long":"-101.003824","city":"Flomot"},"79223":{"lat":"34.223056","state":"TX","long":"-100.445278","city":"Cee Vee"},"79201":{"lat":"34.428124","state":"TX","long":"-100.21017","city":"Childress"},"79257":{"lat":"34.464089","state":"TX","long":"-101.316899","city":"Silverton"},"79235":{"lat":"33.974296","state":"TX","long":"-101.334564","city":"Floydada"},"79258":{"lat":"34.224444","state":"TX","long":"-101.309167","city":"South Plains"},"79247":{"lat":"34.345833","state":"TX","long":"-99.418611","city":"Odell"},"79236":{"lat":"33.620556","state":"TX","long":"-100.3225","city":"Guthrie"},"79225":{"lat":"34.243946","state":"TX","long":"-99.515669","city":"Chillicothe"},"79259":{"lat":"34.378164","state":"TX","long":"-100.396482","city":"Tell"},"79248":{"lat":"34.019154","state":"TX","long":"-100.305917","city":"Paducah"},"79237":{"lat":"34.869787","state":"TX","long":"-100.680632","city":"Hedley"},"79226":{"lat":"34.952878","state":"TX","long":"-100.895157","city":"Clarendon"},"79227":{"lat":"33.991208","state":"TX","long":"-99.698345","city":"Crowell"}});