ComSquarepushJsonzips.load_zips({"79855":{"lat":"31.042879","state":"TX","long":"-104.832249","city":"Van Horn"},"79845":{"lat":"29.557302","state":"TX","long":"-104.35511","city":"Presidio"},"79834":{"lat":"29.147657","state":"TX","long":"-103.330626","city":"Big Bend National Park"},"79846":{"lat":"29.560556","state":"TX","long":"-104.371667","city":"Redford"},"79835":{"lat":"31.934379","state":"TX","long":"-106.592888","city":"Canutillo"},"79847":{"lat":"31.359027","state":"TX","long":"-104.611467","city":"Salt Flat"},"79836":{"lat":"31.549418","state":"TX","long":"-106.20383","city":"Clint"},"79848":{"lat":"30.142222","state":"TX","long":"-102.393611","city":"Sanderson"},"79837":{"lat":"31.923975","state":"TX","long":"-105.209902","city":"Dell City"},"79849":{"lat":"31.585","state":"TX","long":"-106.272222","city":"San Elizario"},"79838":{"lat":"31.502222","state":"TX","long":"-106.158056","city":"Fabens"},"79839":{"lat":"31.296887","state":"TX","long":"-105.823448","city":"Fort Hancock"},"79851":{"lat":"31.193821","state":"TX","long":"-105.321874","city":"Sierra Blanca"},"79852":{"lat":"29.31648","state":"TX","long":"-103.559671","city":"Terlingua"},"79830":{"lat":"30.263111","state":"TX","long":"-103.654089","city":"Alpine"},"79853":{"lat":"31.445278","state":"TX","long":"-106.087778","city":"Tornillo"},"79842":{"lat":"30.18858","state":"TX","long":"-103.221397","city":"Marathon"},"79831":{"lat":"30.358333","state":"TX","long":"-103.660556","city":"Alpine"},"79854":{"lat":"30.620043","state":"TX","long":"-104.481096","city":"Valentine"},"79843":{"lat":"30.292982","state":"TX","long":"-104.084835","city":"Marfa"},"79832":{"lat":"30.362222","state":"TX","long":"-103.645833","city":"Alpine"},"79821":{"lat":"31.990718","state":"TX","long":"-106.597625","city":"Anthony"}});