ComSquarepushJsonzips.load_zips({"81149":{"lat":"38.09775","state":"CO","long":"-106.187592","city":"Saguache"},"81138":{"lat":"37.002778","state":"CO","long":"-105.623611","city":"Jaroso"},"81127":{"lat":"37.194444","state":"CO","long":"-107.300556","city":"Chimney Rock"},"81128":{"lat":"37.036389","state":"CO","long":"-106.842778","city":"Chromo"},"81151":{"lat":"37.208724","state":"CO","long":"-105.928588","city":"Sanford"},"81140":{"lat":"37.290726","state":"CO","long":"-106.005427","city":"La Jara"},"81129":{"lat":"37.088333","state":"CO","long":"-106.019167","city":"Conejos"},"81152":{"lat":"37.05057","state":"CO","long":"-105.575625","city":"San Luis"},"81141":{"lat":"37.174167","state":"CO","long":"-105.936944","city":"Manassa"},"81130":{"lat":"37.816367","state":"CO","long":"-106.927679","city":"Creede"},"81153":{"lat":"37.134872","state":"CO","long":"-105.346196","city":"San Pablo"},"81131":{"lat":"37.996389","state":"CO","long":"-105.699167","city":"Crestone"},"81120":{"lat":"37.085473","state":"CO","long":"-106.037946","city":"Antonito"},"81154":{"lat":"37.67248","state":"CO","long":"-106.612451","city":"South Fork"},"81143":{"lat":"38.045195","state":"CO","long":"-105.841051","city":"Moffat"},"81132":{"lat":"37.671346","state":"CO","long":"-106.350502","city":"Del Norte"},"81121":{"lat":"37.101633","state":"CO","long":"-107.390749","city":"Arboles"},"81155":{"lat":"38.2952","state":"CO","long":"-106.110183","city":"Villa Grove"},"81144":{"lat":"37.573095","state":"CO","long":"-106.140833","city":"Monte Vista"},"81133":{"lat":"37.426978","state":"CO","long":"-105.404879","city":"Fort Garland"},"81122":{"lat":"37.260328","state":"CO","long":"-107.613728","city":"Bayfield"},"81134":{"lat":"37.004167","state":"CO","long":"-105.536667","city":"Garcia"},"81123":{"lat":"37.431702","state":"CO","long":"-105.517784","city":"Blanca"},"81101":{"lat":"37.470274","state":"CO","long":"-105.878602","city":"Alamosa"},"81157":{"lat":"37.269444","state":"CO","long":"-107.009167","city":"Pagosa Springs"},"81146":{"lat":"37.635796","state":"CO","long":"-105.806866","city":"Mosca"},"81135":{"lat":"37.575556","state":"CO","long":"-106.096389","city":"Homelake"},"81124":{"lat":"37.283889","state":"CO","long":"-106.110833","city":"Capulin"},"81102":{"lat":"37.469444","state":"CO","long":"-105.869444","city":"Alamosa"},"81147":{"lat":"37.252345","state":"CO","long":"-107.038497","city":"Pagosa Springs"},"81136":{"lat":"37.723203","state":"CO","long":"-105.871193","city":"Hooper"},"81125":{"lat":"37.734295","state":"CO","long":"-106.090628","city":"Center"},"81148":{"lat":"37.172222","state":"CO","long":"-105.984722","city":"Romeo"},"81137":{"lat":"37.126412","state":"CO","long":"-107.639465","city":"Ignacio"},"81126":{"lat":"37.161944","state":"CO","long":"-105.377778","city":"Chama"}});