ComSquarepushJsonzips.load_zips({"82440":{"lat":"44.716111","state":"WY","long":"-108.863889","city":"Ralston"},"82428":{"lat":"44.250693","state":"WY","long":"-107.605318","city":"Hyattville"},"82441":{"lat":"44.563649","state":"WY","long":"-107.824333","city":"Shell"},"82430":{"lat":"43.804444","state":"WY","long":"-108.180833","city":"Kirby"},"82442":{"lat":"43.997848","state":"WY","long":"-107.415305","city":"Ten Sleep"},"82431":{"lat":"44.833637","state":"WY","long":"-108.414107","city":"Lovell"},"82420":{"lat":"44.883333","state":"WY","long":"-108.468889","city":"Cowley"},"82443":{"lat":"43.662152","state":"WY","long":"-108.231297","city":"Thermopolis"},"82432":{"lat":"44.311931","state":"WY","long":"-107.953423","city":"Manderson"},"82421":{"lat":"44.925695","state":"WY","long":"-108.597948","city":"Deaver"},"82410":{"lat":"44.378765","state":"WY","long":"-108.043787","city":"Basin"},"82433":{"lat":"44.196202","state":"WY","long":"-108.950045","city":"Meeteetse"},"82422":{"lat":"44.505833","state":"WY","long":"-108.391111","city":"Emblem"},"82411":{"lat":"44.444218","state":"WY","long":"-108.432669","city":"Burlington"},"82434":{"lat":"44.405644","state":"WY","long":"-108.304673","city":"Otto"},"82423":{"lat":"44.969722","state":"WY","long":"-108.620278","city":"Frannie"},"82412":{"lat":"44.796389","state":"WY","long":"-108.505833","city":"Byron"},"82401":{"lat":"44.013796","state":"WY","long":"-107.95626","city":"Worland"},"82435":{"lat":"44.756077","state":"WY","long":"-108.777322","city":"Powell"},"82414":{"lat":"44.523135","state":"WY","long":"-109.075611","city":"Cody"},"82426":{"lat":"44.491881","state":"WY","long":"-108.079503","city":"Greybull"},"82450":{"lat":"44.47967","state":"WY","long":"-109.432629","city":"Wapiti"}});