ComSquarepushJsonzips.load_zips({"82945":{"lat":"41.769444","state":"WY","long":"-108.975833","city":"Superior"},"82934":{"lat":"41.593611","state":"WY","long":"-109.968056","city":"Granger"},"82923":{"lat":"42.688146","state":"WY","long":"-109.540105","city":"Boulder"},"82901":{"lat":"41.605957","state":"WY","long":"-109.230047","city":"Rock Springs"},"82935":{"lat":"41.51959","state":"WY","long":"-109.471445","city":"Green River"},"82902":{"lat":"41.5875","state":"WY","long":"-109.202222","city":"Rock Springs"},"82936":{"lat":"41.049144","state":"WY","long":"-110.172862","city":"Lonetree"},"82925":{"lat":"43.139921","state":"WY","long":"-109.915351","city":"Cora"},"82937":{"lat":"41.329136","state":"WY","long":"-110.292629","city":"Lyman"},"82938":{"lat":"41.040898","state":"WY","long":"-109.874536","city":"Mc Kinnon"},"82939":{"lat":"41.268889","state":"WY","long":"-110.339167","city":"Mountain View"},"82941":{"lat":"42.854331","state":"WY","long":"-109.856088","city":"Pinedale"},"82930":{"lat":"41.260947","state":"WY","long":"-110.963067","city":"Evanston"},"82929":{"lat":"41.543611","state":"WY","long":"-109.858333","city":"Little America"},"82942":{"lat":"41.680278","state":"WY","long":"-108.785","city":"Point Of Rocks"},"82931":{"lat":"41.268333","state":"WY","long":"-110.9625","city":"Evanston"},"82943":{"lat":"41.669167","state":"WY","long":"-109.196389","city":"Reliance"},"82932":{"lat":"42.050833","state":"WY","long":"-109.436389","city":"Farson"},"82944":{"lat":"41.185278","state":"WY","long":"-110.4125","city":"Robertson"},"82933":{"lat":"41.28282","state":"WY","long":"-110.347428","city":"Fort Bridger"},"82922":{"lat":"43.223798","state":"WY","long":"-110.335287","city":"Bondurant"}});