ComSquarepushJsonzips.load_zips({"84086":{"lat":"41.488783","state":"UT","long":"-111.186848","city":"Woodruff"},"84065":{"lat":"40.53789","state":"UT","long":"-111.954661","city":"Riverton"},"84002":{"lat":"40.441894","state":"UT","long":"-110.438499","city":"Altonah"},"84023":{"lat":"40.932244","state":"UT","long":"-109.354255","city":"Dutch John"},"84044":{"lat":"40.700879","state":"UT","long":"-112.080867","city":"Magna"},"84087":{"lat":"40.887447","state":"UT","long":"-111.902712","city":"Woods Cross"},"84003":{"lat":"40.392784","state":"UT","long":"-111.794107","city":"American Fork"},"84024":{"lat":"40.977778","state":"UT","long":"-111.4425","city":"Echo"},"84045":{"lat":"40.3486","state":"UT","long":"-111.9132","city":"Saratoga Springs"},"84066":{"lat":"40.310229","state":"UT","long":"-110.010782","city":"Roosevelt"},"84088":{"lat":"40.595913","state":"UT","long":"-111.964385","city":"West Jordan"},"84004":{"lat":"40.461591","state":"UT","long":"-111.768861","city":"Alpine"},"84025":{"lat":"40.988913","state":"UT","long":"-111.893785","city":"Farmington"},"84046":{"lat":"40.968494","state":"UT","long":"-109.723503","city":"Manila"},"84067":{"lat":"41.172365","state":"UT","long":"-112.038177","city":"Roy"},"84090":{"lat":"40.583","state":"UT","long":"-111.8332","city":"Sandy"},"84089":{"lat":"41.1152","state":"UT","long":"-112.0249","city":"Clearfield"},"84005":{"lat":"40.3472","state":"UT","long":"-111.9888","city":"Eagle Mountain"},"84026":{"lat":"40.301411","state":"UT","long":"-109.863726","city":"Fort Duchesne"},"84047":{"lat":"40.615178","state":"UT","long":"-111.885066","city":"Midvale"},"84068":{"lat":"40.7215","state":"UT","long":"-111.5323","city":"Park City"},"84091":{"lat":"40.5897","state":"UT","long":"-111.8713","city":"Sandy"},"84006":{"lat":"40.564614","state":"UT","long":"-112.097718","city":"Bingham Canyon"},"84027":{"lat":"40.212778","state":"UT","long":"-110.838889","city":"Fruitland"},"84070":{"lat":"40.579379","state":"UT","long":"-111.881625","city":"Sandy"},"84069":{"lat":"40.233625","state":"UT","long":"-112.744033","city":"Rush Valley"},"84092":{"lat":"40.560245","state":"UT","long":"-111.82736","city":"Sandy"},"84007":{"lat":"40.351728","state":"UT","long":"-110.294122","city":"Bluebell"},"84028":{"lat":"41.93764","state":"UT","long":"-111.407033","city":"Garden City"},"84050":{"lat":"41.067832","state":"UT","long":"-111.716339","city":"Morgan"},"84049":{"lat":"40.50934","state":"UT","long":"-111.477575","city":"Midway"},"84071":{"lat":"40.350451","state":"UT","long":"-112.425214","city":"Stockton"},"84093":{"lat":"40.592651","state":"UT","long":"-111.830989","city":"Sandy"},"84072":{"lat":"40.382691","state":"UT","long":"-110.702108","city":"Tabiona"},"84008":{"lat":"40.021111","state":"UT","long":"-109.176667","city":"Bonanza"},"84029":{"lat":"40.60054","state":"UT","long":"-112.461766","city":"Grantsville"},"84051":{"lat":"40.191999","state":"UT","long":"-110.767018","city":"Mountain Home"},"84094":{"lat":"40.568757","state":"UT","long":"-111.861716","city":"Sandy"},"84073":{"lat":"40.174569","state":"UT","long":"-110.396529","city":"Talmage"},"84010":{"lat":"40.877513","state":"UT","long":"-111.872658","city":"Bountiful"},"84031":{"lat":"40.450135","state":"UT","long":"-110.809748","city":"Hanna"},"84052":{"lat":"40.194049","state":"UT","long":"-110.048056","city":"Myton"},"84095":{"lat":"40.521944","state":"UT","long":"-111.938333","city":"South Jordan"},"84074":{"lat":"40.545445","state":"UT","long":"-112.300214","city":"Tooele"},"84032":{"lat":"40.494703","state":"UT","long":"-111.405088","city":"Heber City"},"84053":{"lat":"40.449149","state":"UT","long":"-110.037221","city":"Neola"},"84011":{"lat":"40.889444","state":"UT","long":"-111.88","city":"Bountiful"},"84096":{"lat":"40.5032","state":"UT","long":"-112.034","city":"Herriman"},"84075":{"lat":"41.086423","state":"UT","long":"-112.0451","city":"Syracuse"},"84054":{"lat":"40.844064","state":"UT","long":"-111.904116","city":"North Salt Lake"},"84033":{"lat":"41.016667","state":"UT","long":"-111.4975","city":"Henefer"},"84097":{"lat":"40.3015","state":"UT","long":"-111.6756","city":"Orem"},"84076":{"lat":"40.443593","state":"UT","long":"-109.835906","city":"Tridell"},"84013":{"lat":"40.142516","state":"UT","long":"-111.968985","city":"Cedar Valley"},"84034":{"lat":"40.036667","state":"UT","long":"-113.984444","city":"Ibapah"},"84055":{"lat":"40.714722","state":"UT","long":"-111.3","city":"Oakley"},"84098":{"lat":"40.7314","state":"UT","long":"-111.5433","city":"Park City"},"84014":{"lat":"40.926772","state":"UT","long":"-111.87701","city":"Centerville"},"84035":{"lat":"40.378715","state":"UT","long":"-109.350982","city":"Jensen"},"84056":{"lat":"41.116962","state":"UT","long":"-111.995565","city":"Hill Afb"},"84078":{"lat":"40.440613","state":"UT","long":"-109.546883","city":"Vernal"},"84015":{"lat":"41.129388","state":"UT","long":"-112.048224","city":"Clearfield"},"84036":{"lat":"40.641432","state":"UT","long":"-111.261877","city":"Kamas"},"84057":{"lat":"40.313407","state":"UT","long":"-111.695293","city":"Orem"},"84080":{"lat":"40.082609","state":"UT","long":"-112.425961","city":"Vernon"},"84079":{"lat":"40.455556","state":"UT","long":"-109.528056","city":"Vernal"},"84016":{"lat":"41.0892","state":"UT","long":"-112.0202","city":"Clearfield"},"84037":{"lat":"41.037527","state":"UT","long":"-111.932607","city":"Kaysville"},"84058":{"lat":"40.280761","state":"UT","long":"-111.694301","city":"Orem"},"84017":{"lat":"40.924385","state":"UT","long":"-111.407108","city":"Coalville"},"84038":{"lat":"41.81068","state":"UT","long":"-111.268853","city":"Laketown"},"84060":{"lat":"40.695724","state":"UT","long":"-111.528021","city":"Park City"},"84059":{"lat":"40.2969","state":"UT","long":"-111.703","city":"Orem"},"84082":{"lat":"40.365697","state":"UT","long":"-111.464934","city":"Wallsburg"},"84018":{"lat":"41.068915","state":"UT","long":"-111.523092","city":"Croydon"},"84040":{"lat":"41.084576","state":"UT","long":"-111.927365","city":"Layton"},"84039":{"lat":"40.400285","state":"UT","long":"-109.804102","city":"Lapoint"},"84061":{"lat":"40.720937","state":"UT","long":"-111.302467","city":"Peoa"},"84083":{"lat":"40.597396","state":"UT","long":"-113.993573","city":"Wendover"},"84020":{"lat":"40.504599","state":"UT","long":"-111.88096","city":"Draper"},"84041":{"lat":"41.087905","state":"UT","long":"-111.970354","city":"Layton"},"84062":{"lat":"40.371986","state":"UT","long":"-111.733284","city":"Pleasant Grove"},"84084":{"lat":"40.625429","state":"UT","long":"-111.967662","city":"West Jordan"},"84021":{"lat":"39.95398","state":"UT","long":"-110.618094","city":"Duchesne"},"84042":{"lat":"40.34119","state":"UT","long":"-111.714358","city":"Lindon"},"84063":{"lat":"40.21865","state":"UT","long":"-109.730102","city":"Randlett"},"84085":{"lat":"40.452771","state":"UT","long":"-109.917244","city":"Whiterocks"},"84043":{"lat":"40.395845","state":"UT","long":"-111.850606","city":"Lehi"},"84064":{"lat":"41.656328","state":"UT","long":"-111.185578","city":"Randolph"},"84001":{"lat":"40.370225","state":"UT","long":"-110.446356","city":"Altamont"},"84022":{"lat":"40.526892","state":"UT","long":"-112.872905","city":"Dugway"}});