ComSquarepushJsonzips.load_zips({"84341":{"lat":"41.7633","state":"UT","long":"-111.8132","city":"Logan"},"84330":{"lat":"41.875556","state":"UT","long":"-112.143333","city":"Plymouth"},"84319":{"lat":"41.631096","state":"UT","long":"-111.849","city":"Hyrum"},"84308":{"lat":"41.970178","state":"UT","long":"-111.954241","city":"Cornish"},"84331":{"lat":"41.975833","state":"UT","long":"-112.238611","city":"Portage"},"84320":{"lat":"41.970087","state":"UT","long":"-111.876814","city":"Lewiston"},"84332":{"lat":"41.69522","state":"UT","long":"-111.824389","city":"Providence"},"84321":{"lat":"41.747025","state":"UT","long":"-111.822613","city":"Logan"},"84310":{"lat":"41.330279","state":"UT","long":"-111.855765","city":"Eden"},"84309":{"lat":"41.697226","state":"UT","long":"-112.094717","city":"Deweyville"},"84333":{"lat":"41.928223","state":"UT","long":"-111.806922","city":"Richmond"},"84322":{"lat":"41.7436","state":"UT","long":"-111.809","city":"Logan"},"84311":{"lat":"41.811817","state":"UT","long":"-112.118978","city":"Fielding"},"84334":{"lat":"41.788889","state":"UT","long":"-112.148056","city":"Riverside"},"84323":{"lat":"41.6843","state":"UT","long":"-111.6473","city":"Logan"},"84312":{"lat":"41.741319","state":"UT","long":"-112.151635","city":"Garland"},"84301":{"lat":"41.614722","state":"UT","long":"-112.125833","city":"Bear River City"},"84335":{"lat":"41.840328","state":"UT","long":"-111.852813","city":"Smithfield"},"84324":{"lat":"41.497496","state":"UT","long":"-111.941646","city":"Mantua"},"84313":{"lat":"41.629727","state":"UT","long":"-113.854043","city":"Grouse Creek"},"84302":{"lat":"41.507921","state":"UT","long":"-112.015177","city":"Brigham City"},"84336":{"lat":"41.840321","state":"UT","long":"-112.353391","city":"Snowville"},"84325":{"lat":"41.709989","state":"UT","long":"-111.981692","city":"Mendon"},"84314":{"lat":"41.623754","state":"UT","long":"-112.097425","city":"Honeyville"},"84337":{"lat":"41.701564","state":"UT","long":"-112.181293","city":"Tremonton"},"84326":{"lat":"41.681667","state":"UT","long":"-111.822222","city":"Millville"},"84315":{"lat":"41.18267","state":"UT","long":"-112.090371","city":"Hooper"},"84304":{"lat":"41.835556","state":"UT","long":"-112.001944","city":"Cache Junction"},"84338":{"lat":"41.910453","state":"UT","long":"-111.934033","city":"Trenton"},"84327":{"lat":"41.862778","state":"UT","long":"-111.99","city":"Newton"},"84316":{"lat":"41.796111","state":"UT","long":"-112.443611","city":"Howell"},"84305":{"lat":"41.91877","state":"UT","long":"-112.04859","city":"Clarkston"},"84339":{"lat":"41.634302","state":"UT","long":"-111.931676","city":"Wellsville"},"84328":{"lat":"41.560009","state":"UT","long":"-111.829665","city":"Paradise"},"84317":{"lat":"41.272139","state":"UT","long":"-111.761821","city":"Huntsville"},"84306":{"lat":"41.78777","state":"UT","long":"-112.124219","city":"Collinston"},"84340":{"lat":"41.398944","state":"UT","long":"-112.031653","city":"Willard"},"84329":{"lat":"41.855125","state":"UT","long":"-113.34776","city":"Park Valley"},"84318":{"lat":"41.798889","state":"UT","long":"-111.818333","city":"Hyde Park"},"84307":{"lat":"41.544986","state":"UT","long":"-112.151388","city":"Corinne"}});