ComSquarepushJsonzips.load_zips({"85551":{"lat":"32.8125","state":"AZ","long":"-109.633333","city":"Solomon"},"85540":{"lat":"33.043593","state":"AZ","long":"-109.311517","city":"Morenci"},"85552":{"lat":"32.819902","state":"AZ","long":"-109.730245","city":"Thatcher"},"85541":{"lat":"34.219779","state":"AZ","long":"-111.287774","city":"Payson"},"85530":{"lat":"33.126549","state":"AZ","long":"-110.11702","city":"Bylas"},"85553":{"lat":"33.930278","state":"AZ","long":"-111.308056","city":"Tonto Basin"},"85542":{"lat":"33.478874","state":"AZ","long":"-110.37252","city":"Peridot"},"85531":{"lat":"32.8675","state":"AZ","long":"-109.792222","city":"Central"},"85554":{"lat":"34.101389","state":"AZ","long":"-110.963056","city":"Young"},"85543":{"lat":"32.909661","state":"AZ","long":"-109.856009","city":"Pima"},"85532":{"lat":"33.411111","state":"AZ","long":"-110.841944","city":"Claypool"},"85544":{"lat":"34.390915","state":"AZ","long":"-111.473483","city":"Pine"},"85533":{"lat":"33.132343","state":"AZ","long":"-109.246199","city":"Clifton"},"85545":{"lat":"33.635753","state":"AZ","long":"-110.974884","city":"Roosevelt"},"85534":{"lat":"32.793976","state":"AZ","long":"-109.129575","city":"Duncan"},"85501":{"lat":"33.402426","state":"AZ","long":"-110.789247","city":"Globe"},"85546":{"lat":"32.829491","state":"AZ","long":"-109.626641","city":"Safford"},"85535":{"lat":"33.028629","state":"AZ","long":"-109.953682","city":"Eden"},"85502":{"lat":"33.394167","state":"AZ","long":"-110.785833","city":"Globe"},"85547":{"lat":"34.230833","state":"AZ","long":"-111.324444","city":"Payson"},"85536":{"lat":"33.036944","state":"AZ","long":"-109.964722","city":"Fort Thomas"},"85548":{"lat":"32.833889","state":"AZ","long":"-109.706944","city":"Safford"},"85550":{"lat":"33.310643","state":"AZ","long":"-110.395323","city":"San Carlos"},"85539":{"lat":"33.431928","state":"AZ","long":"-110.881182","city":"Miami"}});