ComSquarepushJsonzips.load_zips({"85650":{"lat":"31.5001","state":"AZ","long":"-110.2796","city":"Sierra Vista"},"85639":{"lat":"31.813889","state":"AZ","long":"-111.825","city":"Topawa"},"85628":{"lat":"31.4437","state":"AZ","long":"-111.0206","city":"Nogales"},"85617":{"lat":"31.502969","state":"AZ","long":"-109.630971","city":"Mc Neal"},"85606":{"lat":"32.097891","state":"AZ","long":"-109.92393","city":"Cochise"},"85662":{"lat":"31.4388","state":"AZ","long":"-111.0029","city":"Nogales"},"85640":{"lat":"31.594194","state":"AZ","long":"-111.039693","city":"Tumacacori"},"85652":{"lat":"32.356111","state":"AZ","long":"-111.087778","city":"Cortaro"},"85641":{"lat":"32.035926","state":"AZ","long":"-110.88375","city":"Vail"},"85630":{"lat":"31.897251","state":"AZ","long":"-110.215377","city":"Saint David"},"85629":{"lat":"31.945169","state":"AZ","long":"-111.000154","city":"Sahuarita"},"85618":{"lat":"32.723875","state":"AZ","long":"-110.643961","city":"Mammoth"},"85607":{"lat":"31.35111","state":"AZ","long":"-109.544698","city":"Douglas"},"85653":{"lat":"32.404749","state":"AZ","long":"-111.273621","city":"Marana"},"85631":{"lat":"32.695831","state":"AZ","long":"-110.656788","city":"San Manuel"},"85620":{"lat":"31.335278","state":"AZ","long":"-109.9475","city":"Naco"},"85619":{"lat":"32.438056","state":"AZ","long":"-110.734167","city":"Mount Lemmon"},"85608":{"lat":"31.458","state":"AZ","long":"-109.4353","city":"Douglas"},"85654":{"lat":"32.414722","state":"AZ","long":"-111.155556","city":"Rillito"},"85643":{"lat":"32.372977","state":"AZ","long":"-109.863111","city":"Willcox"},"85632":{"lat":"32.208167","state":"AZ","long":"-109.367152","city":"San Simon"},"85621":{"lat":"31.376969","state":"AZ","long":"-110.943508","city":"Nogales"},"85610":{"lat":"31.713891","state":"AZ","long":"-109.619277","city":"Elfrida"},"85609":{"lat":"32.028056","state":"AZ","long":"-110.038056","city":"Dragoon"},"85655":{"lat":"31.4298","state":"AZ","long":"-109.3637","city":"Douglas"},"85644":{"lat":"32.252778","state":"AZ","long":"-109.831389","city":"Willcox"},"85633":{"lat":"31.488611","state":"AZ","long":"-111.541389","city":"Sasabe"},"85622":{"lat":"31.854167","state":"AZ","long":"-110.994444","city":"Green Valley"},"85611":{"lat":"31.66002","state":"AZ","long":"-110.611403","city":"Elgin"},"85645":{"lat":"31.643759","state":"AZ","long":"-111.072233","city":"Amado"},"85634":{"lat":"32.031572","state":"AZ","long":"-111.922207","city":"Sells"},"85623":{"lat":"32.600506","state":"AZ","long":"-110.796126","city":"Oracle"},"85601":{"lat":"31.574722","state":"AZ","long":"-111.331667","city":"Arivaca"},"85646":{"lat":"31.6125","state":"AZ","long":"-111.045278","city":"Tubac"},"85635":{"lat":"31.536467","state":"AZ","long":"-110.266565","city":"Sierra Vista"},"85624":{"lat":"31.535317","state":"AZ","long":"-110.696774","city":"Patagonia"},"85613":{"lat":"31.558735","state":"AZ","long":"-110.344131","city":"Fort Huachuca"},"85602":{"lat":"31.98826","state":"AZ","long":"-110.294113","city":"Benson"},"85636":{"lat":"31.5544","state":"AZ","long":"-110.303","city":"Sierra Vista"},"85625":{"lat":"31.966608","state":"AZ","long":"-109.795032","city":"Pearce"},"85614":{"lat":"31.854271","state":"AZ","long":"-111.000253","city":"Green Valley"},"85603":{"lat":"31.408557","state":"AZ","long":"-109.911736","city":"Bisbee"},"85670":{"lat":"31.550556","state":"AZ","long":"-110.229722","city":"Fort Huachuca"},"85648":{"lat":"31.4851","state":"AZ","long":"-110.9898","city":"Rio Rico"},"85637":{"lat":"31.866154","state":"AZ","long":"-110.724418","city":"Sonoita"},"85626":{"lat":"31.356944","state":"AZ","long":"-109.561111","city":"Pirtleville"},"85615":{"lat":"31.403545","state":"AZ","long":"-110.204728","city":"Hereford"},"85671":{"lat":"31.3441","state":"AZ","long":"-109.5519","city":"Sierra Vista"},"85638":{"lat":"31.721598","state":"AZ","long":"-110.058449","city":"Tombstone"},"85627":{"lat":"31.999444","state":"AZ","long":"-110.285556","city":"Pomerene"},"85616":{"lat":"31.663896","state":"AZ","long":"-110.333414","city":"Huachuca City"},"85605":{"lat":"32.326389","state":"AZ","long":"-109.486389","city":"Bowie"}});