ComSquarepushJsonzips.load_zips({"86506":{"lat":"35.283","state":"AZ","long":"-109.2063","city":"Houck"},"86540":{"lat":"35.711389","state":"AZ","long":"-109.541389","city":"Nazlini"},"86507":{"lat":"36.418111","state":"AZ","long":"-109.244614","city":"Lukachukai"},"86508":{"lat":"35.4086","state":"AZ","long":"-109.07","city":"Lupton"},"86520":{"lat":"36.100833","state":"AZ","long":"-110.225278","city":"Blue Gap"},"86510":{"lat":"36.100243","state":"AZ","long":"-110.221077","city":"Pinon"},"86544":{"lat":"35.915556","state":"AZ","long":"-109.029167","city":"Red Valley"},"86511":{"lat":"35.644722","state":"AZ","long":"-109.095","city":"Saint Michaels"},"86556":{"lat":"36.307075","state":"AZ","long":"-109.217627","city":"Tsaile"},"86545":{"lat":"36.718056","state":"AZ","long":"-109.625278","city":"Rock Point"},"86512":{"lat":"35.216389","state":"AZ","long":"-109.333056","city":"Sanders"},"86535":{"lat":"36.777286","state":"AZ","long":"-109.861001","city":"Dennehotso"},"86502":{"lat":"35.143044","state":"AZ","long":"-109.37389","city":"Chambers"},"86547":{"lat":"36.502222","state":"AZ","long":"-109.553056","city":"Round Rock"},"86514":{"lat":"36.779694","state":"AZ","long":"-109.359039","city":"Teec Nos Pos"},"86503":{"lat":"36.130367","state":"AZ","long":"-109.603693","city":"Chinle"},"86515":{"lat":"35.680556","state":"AZ","long":"-109.051944","city":"Window Rock"},"86504":{"lat":"35.744444","state":"AZ","long":"-109.075833","city":"Fort Defiance"},"86538":{"lat":"36.408259","state":"AZ","long":"-109.634021","city":"Many Farms"},"86505":{"lat":"35.651844","state":"AZ","long":"-109.283168","city":"Ganado"}});