ComSquarepushJsonzips.load_zips({"87521":{"lat":"36.160411","state":"NM","long":"-105.68461","city":"Chamisal"},"87501":{"lat":"35.702472","state":"NM","long":"-105.974818","city":"Santa Fe"},"87522":{"lat":"36.011906","state":"NM","long":"-105.911441","city":"Chimayo"},"87543":{"lat":"36.14","state":"NM","long":"-105.681111","city":"Llano"},"87564":{"lat":"36.611638","state":"NM","long":"-105.635968","city":"San Cristobal"},"87502":{"lat":"35.81013","state":"NM","long":"-105.9853","city":"Santa Fe"},"87523":{"lat":"36.008333","state":"NM","long":"-105.861667","city":"Cordova"},"87544":{"lat":"35.866321","state":"NM","long":"-106.267624","city":"Los Alamos"},"87565":{"lat":"35.456949","state":"NM","long":"-105.438341","city":"San Jose"},"87503":{"lat":"35.687074","state":"NM","long":"-105.937302","city":"Santa Fe"},"87524":{"lat":"36.952556","state":"NM","long":"-105.501586","city":"Costilla"},"87545":{"lat":"35.888056","state":"NM","long":"-106.306389","city":"Los Alamos"},"87566":{"lat":"36.048886","state":"NM","long":"-106.079267","city":"San Juan Pueblo"},"87504":{"lat":"35.81023","state":"NM","long":"-105.98527","city":"Santa Fe"},"87525":{"lat":"36.584444","state":"NM","long":"-105.452222","city":"Taos Ski Valley"},"87567":{"lat":"35.986011","state":"NM","long":"-106.031839","city":"Santa Cruz"},"87505":{"lat":"35.619623","state":"NM","long":"-105.981994","city":"Santa Fe"},"87506":{"lat":"35.7956","state":"NM","long":"-106.0122","city":"Santa Fe"},"87527":{"lat":"36.179","state":"NM","long":"-105.86148","city":"Dixon"},"87548":{"lat":"36.175556","state":"NM","long":"-106.182778","city":"Medanales"},"87569":{"lat":"35.393333","state":"NM","long":"-105.316667","city":"Serafina"},"87592":{"lat":"35.79512","state":"NM","long":"-105.99317","city":"Santa Fe"},"87528":{"lat":"36.859808","state":"NM","long":"-107.060179","city":"Dulce"},"87549":{"lat":"36.40991","state":"NM","long":"-105.915507","city":"Ojo Caliente"},"87571":{"lat":"36.395288","state":"NM","long":"-105.584732","city":"Taos"},"87507":{"lat":"35.635","state":"NM","long":"-106.0446","city":"Santa Fe"},"87508":{"lat":"35.5587","state":"NM","long":"-105.9762","city":"Santa Fe"},"87530":{"lat":"36.364694","state":"NM","long":"-106.21917","city":"El Rito"},"87529":{"lat":"36.431667","state":"NM","long":"-105.575","city":"El Prado"},"87551":{"lat":"36.718611","state":"NM","long":"-106.611111","city":"Los Ojos"},"87594":{"lat":"35.79507","state":"NM","long":"-105.99296","city":"Santa Fe"},"87510":{"lat":"36.176923","state":"NM","long":"-106.244859","city":"Abiquiu"},"87509":{"lat":"35.687074","state":"NM","long":"-105.937832","city":"Santa Fe"},"87531":{"lat":"36.137028","state":"NM","long":"-106.024187","city":"Embudo"},"87552":{"lat":"35.571011","state":"NM","long":"-105.670104","city":"Pecos"},"87573":{"lat":"35.736881","state":"NM","long":"-105.645725","city":"Tererro"},"87511":{"lat":"36.09","state":"NM","long":"-106.056667","city":"Alcalde"},"87532":{"lat":"35.987157","state":"NM","long":"-106.071697","city":"Espanola"},"87553":{"lat":"36.176023","state":"NM","long":"-105.734245","city":"Penasco"},"87574":{"lat":"35.763333","state":"NM","long":"-105.935","city":"Tesuque"},"87512":{"lat":"36.941944","state":"NM","long":"-105.453889","city":"Amalia"},"87533":{"lat":"35.991111","state":"NM","long":"-106.08","city":"Espanola"},"87554":{"lat":"36.508333","state":"NM","long":"-106.01","city":"Petaca"},"87575":{"lat":"36.680481","state":"NM","long":"-106.556972","city":"Tierra Amarilla"},"87513":{"lat":"36.531848","state":"NM","long":"-105.621998","city":"Arroyo Hondo"},"87576":{"lat":"36.131111","state":"NM","long":"-105.758333","city":"Trampas"},"87514":{"lat":"36.504568","state":"NM","long":"-105.594609","city":"Arroyo Seco"},"87535":{"lat":"35.566645","state":"NM","long":"-105.790316","city":"Glorieta"},"87556":{"lat":"36.72572","state":"NM","long":"-105.560984","city":"Questa"},"87577":{"lat":"36.646944","state":"NM","long":"-105.966667","city":"Tres Piedras"},"87515":{"lat":"36.48","state":"NM","long":"-106.435","city":"Canjilon"},"87557":{"lat":"36.335692","state":"NM","long":"-105.608576","city":"Ranchos De Taos"},"87578":{"lat":"36.043611","state":"NM","long":"-105.811111","city":"Truchas"},"87516":{"lat":"36.186667","state":"NM","long":"-106.438333","city":"Canones"},"87537":{"lat":"36.073811","state":"NM","long":"-106.139579","city":"Hernandez"},"87558":{"lat":"36.708056","state":"NM","long":"-105.405556","city":"Red River"},"87580":{"lat":"36.569699","state":"NM","long":"-105.506971","city":"Valdez"},"87579":{"lat":"36.191305","state":"NM","long":"-105.67818","city":"Vadito"},"87517":{"lat":"36.364444","state":"NM","long":"-105.764722","city":"Carson"},"87538":{"lat":"35.421111","state":"NM","long":"-105.558333","city":"Ilfeld"},"87560":{"lat":"35.334448","state":"NM","long":"-105.465228","city":"Ribera"},"87581":{"lat":"36.516284","state":"NM","long":"-106.085942","city":"Vallecitos"},"87582":{"lat":"36.158889","state":"NM","long":"-105.974167","city":"Velarde"},"87539":{"lat":"36.246387","state":"NM","long":"-106.13443","city":"La Madera"},"87518":{"lat":"36.538333","state":"NM","long":"-106.485833","city":"Cebolla"},"87540":{"lat":"35.431057","state":"NM","long":"-105.940906","city":"Lamy"},"87583":{"lat":"35.265","state":"NM","long":"-105.363333","city":"Villanueva"},"87520":{"lat":"36.896214","state":"NM","long":"-106.582928","city":"Chama"},"87519":{"lat":"36.753889","state":"NM","long":"-105.612222","city":"Cerro"},"87562":{"lat":"35.491667","state":"NM","long":"-105.674722","city":"Rowe"}});