ComSquarepushJsonzips.load_zips({"87749":{"lat":"36.558056","state":"NM","long":"-105.114444","city":"Ute Park"},"87750":{"lat":"35.794033","state":"NM","long":"-104.911587","city":"Valmora"},"87728":{"lat":"36.543393","state":"NM","long":"-104.56395","city":"Maxwell"},"87740":{"lat":"36.895187","state":"NM","long":"-104.434881","city":"Raton"},"87729":{"lat":"36.28955","state":"NM","long":"-104.811769","city":"Miami"},"87718":{"lat":"36.53255","state":"NM","long":"-105.275561","city":"Eagle Nest"},"87752":{"lat":"35.981361","state":"NM","long":"-104.691","city":"Wagon Mound"},"87730":{"lat":"36.128144","state":"NM","long":"-104.227743","city":"Mills"},"87753":{"lat":"35.791667","state":"NM","long":"-104.981667","city":"Watrous"},"87742":{"lat":"35.822648","state":"NM","long":"-105.314716","city":"Rociada"},"87731":{"lat":"35.682959","state":"NM","long":"-105.409729","city":"Montezuma"},"87743":{"lat":"35.952248","state":"NM","long":"-104.149698","city":"Roy"},"87732":{"lat":"36.00405","state":"NM","long":"-105.312837","city":"Mora"},"87710":{"lat":"36.554722","state":"NM","long":"-105.263056","city":"Angel Fire"},"87733":{"lat":"35.715938","state":"NM","long":"-103.746132","city":"Mosquero"},"87722":{"lat":"36.113046","state":"NM","long":"-105.127814","city":"Guadalupita"},"87711":{"lat":"35.159262","state":"NM","long":"-105.141041","city":"Anton Chico"},"87745":{"lat":"35.762012","state":"NM","long":"-105.107735","city":"Sapello"},"87734":{"lat":"36.10366","state":"NM","long":"-105.06595","city":"Ocate"},"87723":{"lat":"36.038333","state":"NM","long":"-105.383056","city":"Holman"},"87712":{"lat":"35.913611","state":"NM","long":"-105.248611","city":"Buena Vista"},"87701":{"lat":"35.594862","state":"NM","long":"-105.227162","city":"Las Vegas"},"87746":{"lat":"35.837828","state":"NM","long":"-104.1221","city":"Solano"},"87735":{"lat":"36.008889","state":"NM","long":"-104.706111","city":"Ojo Feliz"},"87724":{"lat":"35.191562","state":"NM","long":"-105.096864","city":"La Loma"},"87713":{"lat":"36.138805","state":"NM","long":"-105.385411","city":"Chacon"},"87747":{"lat":"36.37672","state":"NM","long":"-104.592705","city":"Springer"},"87736":{"lat":"35.978611","state":"NM","long":"-105.208611","city":"Rainsville"},"87714":{"lat":"36.457424","state":"NM","long":"-105.069694","city":"Cimarron"},"87715":{"lat":"35.989831","state":"NM","long":"-105.43262","city":"Cleveland"}});