ComSquarepushJsonzips.load_zips({"89314":{"lat":"38.814167","state":"NV","long":"-116.1375","city":"Duckwater"},"89315":{"lat":"39.2475","state":"NV","long":"-114.887778","city":"Ely"},"89316":{"lat":"39.589661","state":"NV","long":"-115.994308","city":"Eureka"},"89317":{"lat":"38.904633","state":"NV","long":"-115.044026","city":"Lund"},"89318":{"lat":"39.401389","state":"NV","long":"-114.778056","city":"Mc Gill"},"89319":{"lat":"39.278333","state":"NV","long":"-114.988333","city":"Ruth"},"89310":{"lat":"39.507986","state":"NV","long":"-117.081063","city":"Austin"},"89311":{"lat":"39.065996","state":"NV","long":"-114.246165","city":"Baker"},"89301":{"lat":"39.309356","state":"NV","long":"-114.878011","city":"Ely"}});