ComSquarepushJsonzips.load_zips({"93596":{"lat":"34.999444","state":"CA","long":"-117.648889","city":"Boron"},"93563":{"lat":"34.339014","state":"CA","long":"-117.8271","city":"Valyermo"},"93552":{"lat":"34.5636","state":"CA","long":"-118.0349","city":"Palmdale"},"93541":{"lat":"37.988988","state":"CA","long":"-119.123413","city":"Lee Vining"},"93530":{"lat":"36.487222","state":"CA","long":"-117.873056","city":"Keeler"},"93529":{"lat":"37.777324","state":"CA","long":"-119.082492","city":"June Lake"},"93518":{"lat":"35.356798","state":"CA","long":"-118.410264","city":"Caliente"},"93586":{"lat":"34.6475","state":"CA","long":"-118.2175","city":"Lancaster"},"93553":{"lat":"34.491124","state":"CA","long":"-117.902893","city":"Pearblossom"},"93542":{"lat":"35.936667","state":"CA","long":"-117.905833","city":"Little Lake"},"93531":{"lat":"35.237502","state":"CA","long":"-118.607563","city":"Keene"},"93519":{"lat":"35.282558","state":"CA","long":"-117.993868","city":"Cantil"},"93554":{"lat":"35.352176","state":"CA","long":"-117.726396","city":"Randsburg"},"93543":{"lat":"34.547372","state":"CA","long":"-117.957405","city":"Littlerock"},"93532":{"lat":"34.668297","state":"CA","long":"-118.444719","city":"Lake Hughes"},"93510":{"lat":"34.483541","state":"CA","long":"-118.195929","city":"Acton"},"93599":{"lat":"34.602662","state":"CA","long":"-118.116485","city":"Palmdale"},"93555":{"lat":"35.631376","state":"CA","long":"-117.679733","city":"Ridgecrest"},"93544":{"lat":"34.495914","state":"CA","long":"-117.798841","city":"Llano"},"93522":{"lat":"36.268056","state":"CA","long":"-117.590833","city":"Darwin"},"93556":{"lat":"35.6225","state":"CA","long":"-117.67","city":"Ridgecrest"},"93545":{"lat":"36.579781","state":"CA","long":"-118.057824","city":"Lone Pine"},"93534":{"lat":"34.690888","state":"CA","long":"-118.149129","city":"Lancaster"},"93523":{"lat":"34.930507","state":"CA","long":"-117.915384","city":"Edwards"},"93512":{"lat":"37.798099","state":"CA","long":"-118.498526","city":"Benton"},"93501":{"lat":"35.047767","state":"CA","long":"-118.173475","city":"Mojave"},"93590":{"lat":"34.5009","state":"CA","long":"-118.0586","city":"Palmdale"},"93546":{"lat":"37.642361","state":"CA","long":"-118.976383","city":"Mammoth Lakes"},"93535":{"lat":"34.684751","state":"CA","long":"-118.063245","city":"Lancaster"},"93524":{"lat":"34.925","state":"CA","long":"-117.936944","city":"Edwards"},"93513":{"lat":"37.167857","state":"CA","long":"-118.291597","city":"Big Pine"},"93502":{"lat":"35.0525","state":"CA","long":"-118.173056","city":"Mojave"},"93591":{"lat":"34.6042","state":"CA","long":"-117.8506","city":"Palmdale"},"93558":{"lat":"35.372778","state":"CA","long":"-117.633889","city":"Red Mountain"},"93536":{"lat":"34.673619","state":"CA","long":"-118.213336","city":"Lancaster"},"93514":{"lat":"37.386301","state":"CA","long":"-118.44156","city":"Bishop"},"93592":{"lat":"35.762778","state":"CA","long":"-117.371944","city":"Trona"},"93581":{"lat":"35.132222","state":"CA","long":"-118.448056","city":"Tehachapi"},"93526":{"lat":"36.839578","state":"CA","long":"-118.204808","city":"Independence"},"93515":{"lat":"37.363611","state":"CA","long":"-118.394167","city":"Bishop"},"93504":{"lat":"35.125833","state":"CA","long":"-117.985","city":"California City"},"93560":{"lat":"34.863117","state":"CA","long":"-118.19636","city":"Rosamond"},"93561":{"lat":"35.129776","state":"CA","long":"-118.522227","city":"Tehachapi"},"93550":{"lat":"34.571483","state":"CA","long":"-118.061306","city":"Palmdale"},"93549":{"lat":"36.320833","state":"CA","long":"-118.025556","city":"Olancha"},"93527":{"lat":"35.674498","state":"CA","long":"-117.834844","city":"Inyokern"},"93516":{"lat":"35.003748","state":"CA","long":"-117.662921","city":"Boron"},"93505":{"lat":"35.127783","state":"CA","long":"-117.965142","city":"California City"},"93584":{"lat":"34.69842","state":"CA","long":"-118.13582","city":"Lancaster"},"93562":{"lat":"35.760817","state":"CA","long":"-117.382992","city":"Trona"},"93551":{"lat":"34.601404","state":"CA","long":"-118.181207","city":"Palmdale"},"93539":{"lat":"34.69843","state":"CA","long":"-118.13631","city":"Lancaster"},"93528":{"lat":"35.370655","state":"CA","long":"-117.637325","city":"Johannesburg"},"93517":{"lat":"38.256601","state":"CA","long":"-119.208025","city":"Bridgeport"}});