ComSquarepushJsonzips.load_zips({"94087":{"lat":"37.350214","state":"CA","long":"-122.034859","city":"Sunnyvale"},"94065":{"lat":"37.533128","state":"CA","long":"-122.248564","city":"Redwood City"},"94043":{"lat":"37.405567","state":"CA","long":"-122.077468","city":"Mountain View"},"94021":{"lat":"37.254437","state":"CA","long":"-122.281996","city":"Loma Mar"},"94010":{"lat":"37.575884","state":"CA","long":"-122.362952","city":"Burlingame"},"94088":{"lat":"37.423333","state":"CA","long":"-121.995833","city":"Sunnyvale"},"94066":{"lat":"37.624742","state":"CA","long":"-122.429021","city":"San Bruno"},"94044":{"lat":"37.619559","state":"CA","long":"-122.481607","city":"Pacifica"},"94022":{"lat":"37.381432","state":"CA","long":"-122.125754","city":"Los Altos"},"94011":{"lat":"37.584167","state":"CA","long":"-122.365","city":"Burlingame"},"94089":{"lat":"37.398255","state":"CA","long":"-122.000637","city":"Sunnyvale"},"94023":{"lat":"37.385278","state":"CA","long":"-122.113056","city":"Los Altos"},"94035":{"lat":"37.41001","state":"CA","long":"-122.051944","city":"Mountain View"},"94024":{"lat":"37.354745","state":"CA","long":"-122.086205","city":"Los Altos"},"94013":{"lat":"37.7074","state":"CA","long":"-122.4587","city":"Daly City"},"94002":{"lat":"37.517433","state":"CA","long":"-122.292671","city":"Belmont"},"94080":{"lat":"37.65382","state":"CA","long":"-122.4347","city":"South San Francisco"},"94025":{"lat":"37.453401","state":"CA","long":"-122.179136","city":"Menlo Park"},"94014":{"lat":"37.698187","state":"CA","long":"-122.452679","city":"Daly City"},"94070":{"lat":"37.496859","state":"CA","long":"-122.267356","city":"San Carlos"},"94037":{"lat":"37.542222","state":"CA","long":"-122.515","city":"Montara"},"94026":{"lat":"37.453889","state":"CA","long":"-122.181111","city":"Menlo Park"},"94015":{"lat":"37.678696","state":"CA","long":"-122.478015","city":"Daly City"},"94060":{"lat":"37.206518","state":"CA","long":"-122.364876","city":"Pescadero"},"94038":{"lat":"37.531039","state":"CA","long":"-122.50683","city":"Moss Beach"},"94027":{"lat":"37.456255","state":"CA","long":"-122.200198","city":"Atherton"},"94016":{"lat":"37.7075","state":"CA","long":"-122.4543","city":"Daly City"},"94005":{"lat":"37.681104","state":"CA","long":"-122.400118","city":"Brisbane"},"94083":{"lat":"37.654722","state":"CA","long":"-122.406667","city":"South San Francisco"},"94061":{"lat":"37.464661","state":"CA","long":"-122.230406","city":"Redwood City"},"94039":{"lat":"37.39367","state":"CA","long":"-122.07755","city":"Mountain View"},"94028":{"lat":"37.378859","state":"CA","long":"-122.208131","city":"Portola Vally"},"94017":{"lat":"37.6921","state":"CA","long":"-122.471","city":"Daly City"},"94062":{"lat":"37.452119","state":"CA","long":"-122.255879","city":"Redwood City"},"94040":{"lat":"37.385532","state":"CA","long":"-122.087983","city":"Mountain View"},"94018":{"lat":"37.502778","state":"CA","long":"-122.468333","city":"El Granada"},"94085":{"lat":"37.368889","state":"CA","long":"-122.035278","city":"Sunnyvale"},"94074":{"lat":"37.325513","state":"CA","long":"-122.355552","city":"San Gregorio"},"94063":{"lat":"37.481544","state":"CA","long":"-122.209134","city":"Redwood City"},"94041":{"lat":"37.389347","state":"CA","long":"-122.078341","city":"Mountain View"},"94030":{"lat":"37.600382","state":"CA","long":"-122.401985","city":"Millbrae"},"94019":{"lat":"37.479057","state":"CA","long":"-122.445929","city":"Half Moon Bay"},"94086":{"lat":"37.376407","state":"CA","long":"-122.023771","city":"Sunnyvale"},"94064":{"lat":"37.486111","state":"CA","long":"-122.233333","city":"Redwood City"},"94042":{"lat":"37.39315","state":"CA","long":"-122.07749","city":"Mountain View"},"94020":{"lat":"37.272285","state":"CA","long":"-122.293889","city":"La Honda"}});