ComSquarepushJsonzips.load_zips({"94582":{"lat":"37.78","state":"CA","long":"-121.976944","city":"San Ramon"},"94517":{"lat":"37.915442","state":"CA","long":"-121.909967","city":"Clayton"},"94540":{"lat":"37.6564","state":"CA","long":"-122.0957","city":"Hayward"},"94561":{"lat":"37.994034","state":"CA","long":"-121.703623","city":"Oakley"},"94583":{"lat":"37.756188","state":"CA","long":"-121.952224","city":"San Ramon"},"94520":{"lat":"37.982259","state":"CA","long":"-122.036178","city":"Concord"},"94518":{"lat":"37.950434","state":"CA","long":"-122.026296","city":"Concord"},"94541":{"lat":"37.674048","state":"CA","long":"-122.089418","city":"Hayward"},"94539":{"lat":"37.517579","state":"CA","long":"-121.928733","city":"Fremont"},"94562":{"lat":"38.436944","state":"CA","long":"-122.401111","city":"Oakville"},"94521":{"lat":"37.957503","state":"CA","long":"-121.974955","city":"Concord"},"94519":{"lat":"37.984082","state":"CA","long":"-122.011948","city":"Concord"},"94542":{"lat":"37.658566","state":"CA","long":"-122.047236","city":"Hayward"},"94563":{"lat":"37.878659","state":"CA","long":"-122.172848","city":"Orinda"},"94585":{"lat":"38.240834","state":"CA","long":"-122.042003","city":"Suisun City"},"94501":{"lat":"37.764783","state":"CA","long":"-122.260516","city":"Alameda"},"94522":{"lat":"37.9857","state":"CA","long":"-122.0357","city":"Concord"},"94543":{"lat":"37.6707","state":"CA","long":"-122.0827","city":"Hayward"},"94564":{"lat":"37.996903","state":"CA","long":"-122.287477","city":"Pinole"},"94586":{"lat":"37.609403","state":"CA","long":"-121.898636","city":"Sunol"},"94502":{"lat":"37.765278","state":"CA","long":"-122.240556","city":"Alameda"},"94523":{"lat":"37.954002","state":"CA","long":"-122.07371","city":"Pleasant Hill"},"94544":{"lat":"37.637443","state":"CA","long":"-122.067029","city":"Hayward"},"94565":{"lat":"38.016887","state":"CA","long":"-121.908178","city":"Pittsburg"},"94587":{"lat":"37.589458","state":"CA","long":"-122.049702","city":"Union City"},"94503":{"lat":"38.175","state":"CA","long":"-122.259722","city":"American Canyon"},"94524":{"lat":"37.9769","state":"CA","long":"-122.0561","city":"Concord"},"94545":{"lat":"37.633245","state":"CA","long":"-122.0971","city":"Hayward"},"94566":{"lat":"37.665804","state":"CA","long":"-121.8755","city":"Pleasanton"},"94588":{"lat":"37.687311","state":"CA","long":"-121.8957","city":"Pleasanton"},"94525":{"lat":"38.051865","state":"CA","long":"-122.217659","city":"Crockett"},"94546":{"lat":"37.701527","state":"CA","long":"-122.078183","city":"Castro Valley"},"94567":{"lat":"38.678192","state":"CA","long":"-122.472244","city":"Pope Valley"},"94590":{"lat":"38.105302","state":"CA","long":"-122.247367","city":"Vallejo"},"94589":{"lat":"38.148345","state":"CA","long":"-122.249333","city":"Vallejo"},"94526":{"lat":"37.813985","state":"CA","long":"-121.96598","city":"Danville"},"94547":{"lat":"38.006649","state":"CA","long":"-122.263702","city":"Hercules"},"94568":{"lat":"37.716597","state":"CA","long":"-121.922589","city":"Dublin"},"94591":{"lat":"38.09853","state":"CA","long":"-122.212354","city":"Vallejo"},"94548":{"lat":"37.9818","state":"CA","long":"-121.672149","city":"Knightsen"},"94570":{"lat":"37.8603","state":"CA","long":"-122.1238","city":"Moraga"},"94569":{"lat":"38.046013","state":"CA","long":"-122.186649","city":"Port Costa"},"94527":{"lat":"37.978","state":"CA","long":"-122.0557","city":"Concord"},"94592":{"lat":"38.094654","state":"CA","long":"-122.27273","city":"Vallejo"},"94571":{"lat":"38.163734","state":"CA","long":"-121.701635","city":"Rio Vista"},"94506":{"lat":"37.820833","state":"CA","long":"-121.906667","city":"Danville"},"94550":{"lat":"37.68299","state":"CA","long":"-121.762983","city":"Livermore"},"94549":{"lat":"37.896105","state":"CA","long":"-122.11194","city":"Lafayette"},"94572":{"lat":"38.03069","state":"CA","long":"-122.258139","city":"Rodeo"},"94507":{"lat":"37.853695","state":"CA","long":"-122.022868","city":"Alamo"},"94530":{"lat":"37.915633","state":"CA","long":"-122.298521","city":"El Cerrito"},"94528":{"lat":"37.83883","state":"CA","long":"-121.960951","city":"Diablo"},"94551":{"lat":"37.681944","state":"CA","long":"-121.766944","city":"Livermore"},"94573":{"lat":"38.458611","state":"CA","long":"-122.421389","city":"Rutherford"},"94510":{"lat":"38.068459","state":"CA","long":"-122.161392","city":"Benicia"},"94508":{"lat":"38.576906","state":"CA","long":"-122.447732","city":"Angwin"},"94531":{"lat":"38.005","state":"CA","long":"-121.804722","city":"Antioch"},"94529":{"lat":"37.978","state":"CA","long":"-122.03","city":"Concord"},"94552":{"lat":"37.713107","state":"CA","long":"-122.038113","city":"Castro Valley"},"94595":{"lat":"37.875317","state":"CA","long":"-122.070259","city":"Walnut Creek"},"94574":{"lat":"38.513776","state":"CA","long":"-122.461921","city":"Saint Helena"},"94511":{"lat":"38.015","state":"CA","long":"-121.639444","city":"Bethel Island"},"94509":{"lat":"37.993917","state":"CA","long":"-121.808906","city":"Antioch"},"94553":{"lat":"37.993246","state":"CA","long":"-122.111693","city":"Martinez"},"94596":{"lat":"37.905279","state":"CA","long":"-122.054909","city":"Walnut Creek"},"94575":{"lat":"37.835","state":"CA","long":"-122.1286","city":"Moraga"},"94512":{"lat":"38.150402","state":"CA","long":"-121.844318","city":"Birds Landing"},"94533":{"lat":"38.267084","state":"CA","long":"-122.03565","city":"Fairfield"},"94597":{"lat":"37.906389","state":"CA","long":"-122.063889","city":"Walnut Creek"},"94576":{"lat":"38.575833","state":"CA","long":"-122.448889","city":"Deer Park"},"94513":{"lat":"37.932415","state":"CA","long":"-121.689427","city":"Brentwood"},"94534":{"lat":"38.238333","state":"CA","long":"-122.039167","city":"Fairfield"},"94555":{"lat":"37.573458","state":"CA","long":"-122.046925","city":"Fremont"},"94598":{"lat":"37.919424","state":"CA","long":"-122.025879","city":"Walnut Creek"},"94577":{"lat":"37.720467","state":"CA","long":"-122.158705","city":"San Leandro"},"94514":{"lat":"37.902616","state":"CA","long":"-121.602211","city":"Byron"},"94535":{"lat":"38.274313","state":"CA","long":"-121.946317","city":"Travis Afb"},"94556":{"lat":"37.843653","state":"CA","long":"-122.124185","city":"Moraga"},"94599":{"lat":"38.403813","state":"CA","long":"-122.358506","city":"Yountville"},"94578":{"lat":"37.702377","state":"CA","long":"-122.123969","city":"San Leandro"},"94515":{"lat":"38.582305","state":"CA","long":"-122.581384","city":"Calistoga"},"94536":{"lat":"37.560493","state":"CA","long":"-121.999935","city":"Fremont"},"94557":{"lat":"37.6335","state":"CA","long":"-122.0961","city":"Hayward"},"94580":{"lat":"37.678671","state":"CA","long":"-122.129547","city":"San Lorenzo"},"94579":{"lat":"37.689209","state":"CA","long":"-122.150659","city":"San Leandro"},"94537":{"lat":"37.551389","state":"CA","long":"-121.970833","city":"Fremont"},"94558":{"lat":"38.328137","state":"CA","long":"-122.305518","city":"Napa"},"94516":{"lat":"37.831667","state":"CA","long":"-122.186667","city":"Canyon"},"94581":{"lat":"38.297222","state":"CA","long":"-122.284444","city":"Napa"},"94559":{"lat":"38.290362","state":"CA","long":"-122.284086","city":"Napa"},"94538":{"lat":"37.530815","state":"CA","long":"-121.971215","city":"Fremont"},"94560":{"lat":"37.536812","state":"CA","long":"-122.031956","city":"Newark"}});