ComSquarepushJsonzips.load_zips({"95494":{"lat":"38.908945","state":"CA","long":"-123.233867","city":"Yorkville"},"95410":{"lat":"39.215934","state":"CA","long":"-123.721366","city":"Albion"},"95431":{"lat":"38.348889","state":"CA","long":"-122.509722","city":"Eldridge"},"95452":{"lat":"38.416794","state":"CA","long":"-122.554679","city":"Kenwood"},"95473":{"lat":"38.402222","state":"CA","long":"-122.822778","city":"Sebastopol"},"95409":{"lat":"38.461242","state":"CA","long":"-122.642125","city":"Santa Rosa"},"95432":{"lat":"39.160402","state":"CA","long":"-123.723961","city":"Elk"},"95453":{"lat":"39.055147","state":"CA","long":"-122.915082","city":"Lakeport"},"95412":{"lat":"38.714485","state":"CA","long":"-123.314214","city":"Annapolis"},"95433":{"lat":"38.297778","state":"CA","long":"-122.490556","city":"El Verano"},"95454":{"lat":"39.667811","state":"CA","long":"-123.486862","city":"Laytonville"},"95497":{"lat":"38.725627","state":"CA","long":"-123.467486","city":"The Sea Ranch"},"95476":{"lat":"38.295659","state":"CA","long":"-122.472843","city":"Sonoma"},"95435":{"lat":"39.004444","state":"CA","long":"-122.874444","city":"Finley"},"95456":{"lat":"39.271042","state":"CA","long":"-123.753089","city":"Little River"},"95415":{"lat":"39.035007","state":"CA","long":"-123.401954","city":"Boonville"},"95436":{"lat":"38.489442","state":"CA","long":"-122.896683","city":"Forestville"},"95457":{"lat":"38.860682","state":"CA","long":"-122.575426","city":"Lower Lake"},"95437":{"lat":"39.437452","state":"CA","long":"-123.78835","city":"Fort Bragg"},"95458":{"lat":"39.083393","state":"CA","long":"-122.785125","city":"Lucerne"},"95480":{"lat":"38.651944","state":"CA","long":"-123.398056","city":"Stewarts Point"},"95416":{"lat":"38.313889","state":"CA","long":"-122.480833","city":"Boyes Hot Springs"},"95481":{"lat":"39.130833","state":"CA","long":"-123.165","city":"Talmage"},"95459":{"lat":"38.992088","state":"CA","long":"-123.670962","city":"Manchester"},"95417":{"lat":"39.700531","state":"CA","long":"-123.554982","city":"Branscomb"},"95460":{"lat":"39.323212","state":"CA","long":"-123.78846","city":"Mendocino"},"95482":{"lat":"39.151917","state":"CA","long":"-123.200692","city":"Ukiah"},"95418":{"lat":"39.150278","state":"CA","long":"-123.206667","city":"Calpella"},"95439":{"lat":"38.494732","state":"CA","long":"-122.77608","city":"Fulton"},"95461":{"lat":"38.782504","state":"CA","long":"-122.64352","city":"Middletown"},"95420":{"lat":"39.365102","state":"CA","long":"-123.798489","city":"Caspar"},"95441":{"lat":"38.700398","state":"CA","long":"-122.888921","city":"Geyserville"},"95462":{"lat":"38.462668","state":"CA","long":"-123.00447","city":"Monte Rio"},"95421":{"lat":"38.566335","state":"CA","long":"-123.182896","city":"Cazadero"},"95419":{"lat":"38.425278","state":"CA","long":"-122.958333","city":"Camp Meeker"},"95442":{"lat":"38.362538","state":"CA","long":"-122.521002","city":"Glen Ellen"},"95463":{"lat":"39.065833","state":"CA","long":"-123.443889","city":"Navarro"},"95485":{"lat":"39.160829","state":"CA","long":"-122.896114","city":"Upper Lake"},"95401":{"lat":"38.443123","state":"CA","long":"-122.751722","city":"Santa Rosa"},"95422":{"lat":"38.957138","state":"CA","long":"-122.636089","city":"Clearlake"},"95443":{"lat":"38.99008","state":"CA","long":"-122.522035","city":"Glenhaven"},"95464":{"lat":"39.122341","state":"CA","long":"-122.842409","city":"Nice"},"95486":{"lat":"38.473056","state":"CA","long":"-123.024444","city":"Villa Grande"},"95402":{"lat":"38.439925","state":"CA","long":"-122.710908","city":"Santa Rosa"},"95423":{"lat":"39.034838","state":"CA","long":"-122.66873","city":"Clearlake Oaks"},"95444":{"lat":"38.434971","state":"CA","long":"-122.866766","city":"Graton"},"95465":{"lat":"38.396911","state":"CA","long":"-122.988194","city":"Occidental"},"95487":{"lat":"38.2725","state":"CA","long":"-122.4375","city":"Vineburg"},"95403":{"lat":"38.477273","state":"CA","long":"-122.748528","city":"Santa Rosa"},"95424":{"lat":"38.967778","state":"CA","long":"-122.653889","city":"Clearlake Park"},"95445":{"lat":"38.803619","state":"CA","long":"-123.553975","city":"Gualala"},"95466":{"lat":"39.120005","state":"CA","long":"-123.538218","city":"Philo"},"95488":{"lat":"39.644059","state":"CA","long":"-123.76426","city":"Westport"},"95404":{"lat":"38.449556","state":"CA","long":"-122.689524","city":"Santa Rosa"},"95425":{"lat":"38.799396","state":"CA","long":"-123.011725","city":"Cloverdale"},"95446":{"lat":"38.509573","state":"CA","long":"-122.994416","city":"Guerneville"},"95467":{"lat":"39.962583","state":"CA","long":"-123.814656","city":"Hidden Valley Lake"},"95490":{"lat":"39.411426","state":"CA","long":"-123.350271","city":"Willits"},"95426":{"lat":"38.822222","state":"CA","long":"-122.721944","city":"Cobb"},"95468":{"lat":"38.915264","state":"CA","long":"-123.660756","city":"Point Arena"},"95405":{"lat":"38.438279","state":"CA","long":"-122.66988","city":"Santa Rosa"},"95448":{"lat":"38.61553","state":"CA","long":"-122.856529","city":"Healdsburg"},"95470":{"lat":"39.269446","state":"CA","long":"-123.213289","city":"Redwood Valley"},"95469":{"lat":"39.329639","state":"CA","long":"-123.104181","city":"Potter Valley"},"95406":{"lat":"38.4399","state":"CA","long":"-122.7096","city":"Santa Rosa"},"95427":{"lat":"39.249919","state":"CA","long":"-123.585652","city":"Comptche"},"95492":{"lat":"38.543182","state":"CA","long":"-122.804375","city":"Windsor"},"95407":{"lat":"38.410462","state":"CA","long":"-122.727896","city":"Santa Rosa"},"95428":{"lat":"39.801864","state":"CA","long":"-123.215015","city":"Covelo"},"95450":{"lat":"38.474093","state":"CA","long":"-123.135379","city":"Jenner"},"95449":{"lat":"38.972056","state":"CA","long":"-123.116956","city":"Hopland"},"95471":{"lat":"38.521111","state":"CA","long":"-122.975833","city":"Rio Nido"},"95493":{"lat":"39.182118","state":"CA","long":"-122.97105","city":"Witter Springs"},"95430":{"lat":"38.453889","state":"CA","long":"-123.053889","city":"Duncans Mills"},"95429":{"lat":"39.709298","state":"CA","long":"-123.298294","city":"Dos Rios"},"95451":{"lat":"38.946164","state":"CA","long":"-122.781707","city":"Kelseyville"},"95472":{"lat":"38.391543","state":"CA","long":"-122.838503","city":"Sebastopol"}});