ComSquarepushJsonzips.load_zips({"97543":{"lat":"42.392483","state":"OR","long":"-123.513861","city":"Wilderville"},"97532":{"lat":"42.529654","state":"OR","long":"-123.439256","city":"Merlin"},"97544":{"lat":"42.223049","state":"OR","long":"-123.282877","city":"Williams"},"97533":{"lat":"42.347778","state":"OR","long":"-123.332222","city":"Murphy"},"97522":{"lat":"42.549243","state":"OR","long":"-122.563801","city":"Butte Falls"},"97534":{"lat":"42.068816","state":"OR","long":"-123.720898","city":"O Brien"},"97523":{"lat":"42.134789","state":"OR","long":"-123.627199","city":"Cave Junction"},"97501":{"lat":"42.319293","state":"OR","long":"-122.887011","city":"Medford"},"97535":{"lat":"42.276555","state":"OR","long":"-122.822694","city":"Phoenix"},"97524":{"lat":"42.493467","state":"OR","long":"-122.808802","city":"Eagle Point"},"97502":{"lat":"42.389914","state":"OR","long":"-122.922235","city":"Central Point"},"97536":{"lat":"42.754394","state":"OR","long":"-122.50898","city":"Prospect"},"97525":{"lat":"42.424436","state":"OR","long":"-123.08543","city":"Gold Hill"},"97503":{"lat":"42.431919","state":"OR","long":"-122.82962","city":"White City"},"97537":{"lat":"42.488889","state":"OR","long":"-123.158726","city":"Rogue River"},"97526":{"lat":"42.463758","state":"OR","long":"-123.345727","city":"Grants Pass"},"97504":{"lat":"42.336251","state":"OR","long":"-122.839801","city":"Medford"},"97538":{"lat":"42.296358","state":"OR","long":"-123.568394","city":"Selma"},"97527":{"lat":"42.398913","state":"OR","long":"-123.353799","city":"Grants Pass"},"97539":{"lat":"42.607575","state":"OR","long":"-122.812191","city":"Shady Cove"},"97528":{"lat":"42.439167","state":"OR","long":"-123.327222","city":"Grants Pass"},"97540":{"lat":"42.236252","state":"OR","long":"-122.78605","city":"Talent"},"97541":{"lat":"42.686358","state":"OR","long":"-122.816029","city":"Trail"},"97530":{"lat":"42.254894","state":"OR","long":"-123.028098","city":"Jacksonville"},"97531":{"lat":"42.209343","state":"OR","long":"-123.657302","city":"Kerby"},"97520":{"lat":"42.188509","state":"OR","long":"-122.693033","city":"Ashland"}});