ComSquarepushJsonzips.load_zips({"97905":{"lat":"44.582222","state":"OR","long":"-117.463611","city":"Durkee"},"97917":{"lat":"43.467415","state":"OR","long":"-118.095769","city":"Riverside"},"97906":{"lat":"43.873363","state":"OR","long":"-117.528433","city":"Harper"},"97918":{"lat":"44.003902","state":"OR","long":"-117.267412","city":"Vale"},"97907":{"lat":"44.381113","state":"OR","long":"-117.309691","city":"Huntington"},"97920":{"lat":"43.992246","state":"OR","long":"-117.687673","city":"Westfall"},"97908":{"lat":"44.300913","state":"OR","long":"-117.944435","city":"Ironside"},"97910":{"lat":"42.880139","state":"OR","long":"-117.280984","city":"Jordan Valley"},"97909":{"lat":"44.181873","state":"OR","long":"-117.437269","city":"Jamieson"},"97911":{"lat":"43.825277","state":"OR","long":"-118.092118","city":"Juntura"},"97901":{"lat":"43.653712","state":"OR","long":"-117.060193","city":"Adrian"},"97913":{"lat":"43.860386","state":"OR","long":"-117.025113","city":"Nyssa"},"97902":{"lat":"43.970896","state":"OR","long":"-117.034189","city":"Arock"},"97914":{"lat":"44.04156","state":"OR","long":"-116.978268","city":"Ontario"},"97903":{"lat":"44.199396","state":"OR","long":"-117.590371","city":"Brogan"},"97904":{"lat":"43.864277","state":"OR","long":"-118.47066","city":"Drewsey"}});