ComSquarepushJsonzips.load_zips({"98082":{"lat":"47.860278","state":"WA","long":"-122.203056","city":"Mill Creek"},"98040":{"lat":"47.563149","state":"WA","long":"-122.226562","city":"Mercer Island"},"98039":{"lat":"47.621111","state":"WA","long":"-122.226389","city":"Medina"},"98061":{"lat":"47.664722","state":"WA","long":"-122.508889","city":"Rollingbay"},"98083":{"lat":"47.681667","state":"WA","long":"-122.2075","city":"Kirkland"},"98020":{"lat":"47.800693","state":"WA","long":"-122.366949","city":"Edmonds"},"98019":{"lat":"47.724987","state":"WA","long":"-121.936906","city":"Duvall"},"98041":{"lat":"47.76","state":"WA","long":"-122.204444","city":"Bothell"},"98062":{"lat":"47.469444","state":"WA","long":"-122.360833","city":"Seahurst"},"98021":{"lat":"47.791806","state":"WA","long":"-122.224339","city":"Bothell"},"98042":{"lat":"47.368044","state":"WA","long":"-122.120615","city":"Kent"},"98063":{"lat":"47.308","state":"WA","long":"-122.3117","city":"Federal Way"},"98001":{"lat":"47.316339","state":"WA","long":"-122.270057","city":"Auburn"},"98022":{"lat":"47.266545","state":"WA","long":"-122.031429","city":"Enumclaw"},"98043":{"lat":"47.793061","state":"WA","long":"-122.304036","city":"Mountlake Terrace"},"98064":{"lat":"47.3873","state":"WA","long":"-122.1983","city":"Kent"},"98002":{"lat":"47.30503","state":"WA","long":"-122.206741","city":"Auburn"},"98023":{"lat":"47.310358","state":"WA","long":"-122.36123","city":"Federal Way"},"98065":{"lat":"47.529286","state":"WA","long":"-121.822533","city":"Snoqualmie"},"98087":{"lat":"47.865282","state":"WA","long":"-122.264089","city":"Lynnwood"},"98024":{"lat":"47.568233","state":"WA","long":"-121.889646","city":"Fall City"},"98045":{"lat":"47.475546","state":"WA","long":"-121.757142","city":"North Bend"},"98003":{"lat":"47.3203","state":"WA","long":"-122.311726","city":"Federal Way"},"98046":{"lat":"47.821111","state":"WA","long":"-122.313889","city":"Lynnwood"},"98004":{"lat":"47.619899","state":"WA","long":"-122.207371","city":"Bellevue"},"98025":{"lat":"47.421944","state":"WA","long":"-121.971667","city":"Hobart"},"98089":{"lat":"47.3811","state":"WA","long":"-122.2336","city":"Kent"},"98068":{"lat":"47.409722","state":"WA","long":"-121.405833","city":"Snoqualmie Pass"},"98005":{"lat":"47.614961","state":"WA","long":"-122.166288","city":"Bellevue"},"98026":{"lat":"47.823324","state":"WA","long":"-122.334463","city":"Edmonds"},"98047":{"lat":"47.266605","state":"WA","long":"-122.243481","city":"Pacific"},"98006":{"lat":"47.561425","state":"WA","long":"-122.155179","city":"Bellevue"},"98027":{"lat":"47.550911","state":"WA","long":"-122.033517","city":"Issaquah"},"98070":{"lat":"47.425949","state":"WA","long":"-122.464415","city":"Vashon"},"98092":{"lat":"47.2949","state":"WA","long":"-122.1564","city":"Auburn"},"98007":{"lat":"47.617443","state":"WA","long":"-122.142572","city":"Bellevue"},"98028":{"lat":"47.7575","state":"WA","long":"-122.242778","city":"Kenmore"},"98050":{"lat":"47.523889","state":"WA","long":"-121.925833","city":"Preston"},"98071":{"lat":"47.3106","state":"WA","long":"-122.2286","city":"Auburn"},"98093":{"lat":"47.3225","state":"WA","long":"-122.3113","city":"Federal Way"},"98008":{"lat":"47.611468","state":"WA","long":"-122.116173","city":"Bellevue"},"98030":{"lat":"47.3695","state":"WA","long":"-122.1949","city":"Kent"},"98029":{"lat":"47.530278","state":"WA","long":"-122.031389","city":"Issaquah"},"98051":{"lat":"47.415476","state":"WA","long":"-121.987897","city":"Ravensdale"},"98072":{"lat":"47.768384","state":"WA","long":"-122.127087","city":"Woodinville"},"98010":{"lat":"47.311372","state":"WA","long":"-122.005265","city":"Black Diamond"},"98009":{"lat":"47.6105","state":"WA","long":"-122.1994","city":"Bellevue"},"98031":{"lat":"47.388004","state":"WA","long":"-122.193184","city":"Kent"},"98052":{"lat":"47.671796","state":"WA","long":"-122.123242","city":"Redmond"},"98073":{"lat":"47.674167","state":"WA","long":"-122.120278","city":"Redmond"},"98011":{"lat":"47.749692","state":"WA","long":"-122.2159","city":"Bothell"},"98032":{"lat":"47.377633","state":"WA","long":"-122.285362","city":"Kent"},"98053":{"lat":"47.646238","state":"WA","long":"-122.038578","city":"Redmond"},"98074":{"lat":"47.6244","state":"WA","long":"-122.0423","city":"Sammamish"},"98012":{"lat":"47.848941","state":"WA","long":"-122.206981","city":"Bothell"},"98033":{"lat":"47.678597","state":"WA","long":"-122.189442","city":"Kirkland"},"98054":{"lat":"47.348611","state":"WA","long":"-122.322222","city":"Redondo"},"98075":{"lat":"47.5858","state":"WA","long":"-122.0313","city":"Sammamish"},"98013":{"lat":"47.389167","state":"WA","long":"-122.459444","city":"Burton"},"98034":{"lat":"47.718777","state":"WA","long":"-122.196571","city":"Kirkland"},"98055":{"lat":"47.464759","state":"WA","long":"-122.207484","city":"Renton"},"98035":{"lat":"47.3808","state":"WA","long":"-122.2346","city":"Kent"},"98056":{"lat":"47.507336","state":"WA","long":"-122.181942","city":"Renton"},"98077":{"lat":"47.754444","state":"WA","long":"-122.162222","city":"Woodinville"},"98014":{"lat":"47.638007","state":"WA","long":"-121.911095","city":"Carnation"},"98057":{"lat":"47.483056","state":"WA","long":"-122.215833","city":"Renton"},"98015":{"lat":"47.6122","state":"WA","long":"-122.1862","city":"Bellevue"},"98036":{"lat":"47.811825","state":"WA","long":"-122.287789","city":"Lynnwood"},"98037":{"lat":"47.850532","state":"WA","long":"-122.282139","city":"Lynnwood"},"98058":{"lat":"47.446507","state":"WA","long":"-122.121586","city":"Renton"},"98038":{"lat":"47.384526","state":"WA","long":"-122.057413","city":"Maple Valley"},"98059":{"lat":"47.467383","state":"WA","long":"-122.151178","city":"Renton"}});