ComSquarepushJsonzips.load_zips({"99575":{"lat":"61.818072","state":"AK","long":"-158.002483","city":"Crooked Creek"},"99554":{"lat":"62.746967","state":"AK","long":"-164.60228","city":"Alakanuk"},"99513":{"lat":"61.215392","state":"AK","long":"-149.885631","city":"Anchorage"},"99555":{"lat":"59.269688","state":"AK","long":"-158.619882","city":"Aleknagik"},"99576":{"lat":"59.059279","state":"AK","long":"-158.973533","city":"Dillingham"},"99514":{"lat":"61.21828","state":"AK","long":"-149.90049","city":"Anchorage"},"99556":{"lat":"59.788818","state":"AK","long":"-151.732933","city":"Anchor Point"},"99577":{"lat":"61.311357","state":"AK","long":"-149.508515","city":"Eagle River"},"99599":{"lat":"61.187549","state":"AK","long":"-149.880396","city":"Anchorage"},"99515":{"lat":"61.119381","state":"AK","long":"-149.897401","city":"Anchorage"},"99557":{"lat":"61.691648","state":"AK","long":"-157.758502","city":"Aniak"},"99578":{"lat":"60.215058","state":"AK","long":"-162.032341","city":"Eek"},"99516":{"lat":"61.10541","state":"AK","long":"-149.779998","city":"Anchorage"},"99558":{"lat":"62.830913","state":"AK","long":"-160.130441","city":"Anvik"},"99580":{"lat":"59.362792","state":"AK","long":"-157.478211","city":"Ekwok"},"99579":{"lat":"58.206174","state":"AK","long":"-157.342202","city":"Egegik"},"99517":{"lat":"61.190136","state":"AK","long":"-149.936111","city":"Anchorage"},"99559":{"lat":"60.832389","state":"AK","long":"-161.824053","city":"Bethel"},"99581":{"lat":"62.827404","state":"AK","long":"-164.131298","city":"Emmonak"},"99518":{"lat":"61.154862","state":"AK","long":"-149.886571","city":"Anchorage"},"99540":{"lat":"60.9804","state":"AK","long":"-149.4917","city":"Indian"},"99561":{"lat":"60.153746","state":"AK","long":"-164.210294","city":"Chefornak"},"99520":{"lat":"61.2147","state":"AK","long":"-149.8649","city":"Anchorage"},"99519":{"lat":"61.21849","state":"AK","long":"-149.90084","city":"Anchorage"},"99583":{"lat":"54.841028","state":"AK","long":"-163.436845","city":"False Pass"},"99563":{"lat":"61.583982","state":"AK","long":"-164.776457","city":"Chevak"},"99521":{"lat":"61.1996","state":"AK","long":"-149.7314","city":"Anchorage"},"99564":{"lat":"56.301639","state":"AK","long":"-158.415696","city":"Chignik"},"99585":{"lat":"61.837087","state":"AK","long":"-161.7394","city":"Marshall"},"99501":{"lat":"61.211571","state":"AK","long":"-149.876077","city":"Anchorage"},"99522":{"lat":"61.1521","state":"AK","long":"-149.9198","city":"Anchorage"},"99586":{"lat":"62.654744","state":"AK","long":"-143.568393","city":"Gakona"},"99502":{"lat":"61.096163","state":"AK","long":"-150.093943","city":"Anchorage"},"99523":{"lat":"61.1682","state":"AK","long":"-149.8356","city":"Anchorage"},"99565":{"lat":"56.251277","state":"AK","long":"-158.673528","city":"Chignik Lagoon"},"99503":{"lat":"61.189953","state":"AK","long":"-149.893844","city":"Anchorage"},"99524":{"lat":"61.21853","state":"AK","long":"-149.90049","city":"Anchorage"},"99545":{"lat":"60.9888","state":"AK","long":"-149.4116","city":"Kongiganak"},"99566":{"lat":"61.516667","state":"AK","long":"-144.436667","city":"Chitina"},"99587":{"lat":"60.9425","state":"AK","long":"-149.166389","city":"Girdwood"},"99504":{"lat":"61.203696","state":"AK","long":"-149.74467","city":"Anchorage"},"99546":{"lat":"55.999722","state":"AK","long":"-161.207778","city":"Adak"},"99567":{"lat":"61.409802","state":"AK","long":"-149.453736","city":"Chugiak"},"99588":{"lat":"62.103895","state":"AK","long":"-145.661684","city":"Glennallen"},"99590":{"lat":"63.372013","state":"AK","long":"-159.404907","city":"Grayling"},"99505":{"lat":"61.275256","state":"AK","long":"-149.675454","city":"Fort Richardson"},"99547":{"lat":"52.199167","state":"AK","long":"-174.213333","city":"Atka"},"99568":{"lat":"60.201603","state":"AK","long":"-151.422628","city":"Clam Gulch"},"99589":{"lat":"59.085008","state":"AK","long":"-161.587146","city":"Goodnews Bay"},"99591":{"lat":"56.60324","state":"AK","long":"-169.547257","city":"Saint George Island"},"99506":{"lat":"61.251531","state":"AK","long":"-149.812667","city":"Elmendorf Afb"},"99548":{"lat":"56.255556","state":"AK","long":"-158.7625","city":"Chignik Lake"},"99569":{"lat":"58.84921","state":"AK","long":"-158.451241","city":"Clarks Point"},"99507":{"lat":"61.153543","state":"AK","long":"-149.828912","city":"Anchorage"},"99550":{"lat":"57.866667","state":"AK","long":"-152.883333","city":"Port Lions"},"99549":{"lat":"56.964333","state":"AK","long":"-158.566367","city":"Port Heiden"},"99571":{"lat":"55.610952","state":"AK","long":"-161.942941","city":"Cold Bay"},"99508":{"lat":"61.205959","state":"AK","long":"-149.810085","city":"Anchorage"},"99530":{"lat":"61.183058","state":"AK","long":"-149.988395","city":"Anchorage"},"99529":{"lat":"61.183711","state":"AK","long":"-149.988573","city":"Anchorage"},"99551":{"lat":"60.891854","state":"AK","long":"-161.39233","city":"Akiachak"},"99572":{"lat":"60.476692","state":"AK","long":"-149.823514","city":"Cooper Landing"},"99509":{"lat":"61.1897","state":"AK","long":"-149.9063","city":"Anchorage"},"99552":{"lat":"60.890632","state":"AK","long":"-161.199325","city":"Akiak"},"99573":{"lat":"61.91581","state":"AK","long":"-144.97793","city":"Copper Center"},"99510":{"lat":"61.2199","state":"AK","long":"-149.8882","city":"Anchorage"},"99553":{"lat":"54.143012","state":"AK","long":"-165.785368","city":"Akutan"},"99574":{"lat":"60.102558","state":"AK","long":"-147.943316","city":"Cordova"},"99511":{"lat":"61.1104","state":"AK","long":"-149.8577","city":"Anchorage"}});