ComSquarepushJsonzips.load_zips({"99840":{"lat":"59.468471","state":"AK","long":"-135.301794","city":"Skagway"},"99829":{"lat":"58.032237","state":"AK","long":"-135.558435","city":"Hoonah"},"99841":{"lat":"57.78","state":"AK","long":"-135.216667","city":"Tenakee Springs"},"99830":{"lat":"56.975833","state":"AK","long":"-133.947222","city":"Kake"},"99820":{"lat":"57.569832","state":"AK","long":"-134.371052","city":"Angoon"},"99832":{"lat":"57.960833","state":"AK","long":"-136.2275","city":"Pelican"},"99821":{"lat":"58.3833","state":"AK","long":"-134.6597","city":"Auke Bay"},"99833":{"lat":"56.827134","state":"AK","long":"-133.160683","city":"Petersburg"},"99811":{"lat":"58.47735","state":"AK","long":"-134.1554","city":"Juneau"},"99812":{"lat":"58.2806","state":"AK","long":"-134.3994","city":"Juneau"},"99801":{"lat":"58.362767","state":"AK","long":"-134.529429","city":"Juneau"},"99835":{"lat":"57.051436","state":"AK","long":"-135.316569","city":"Sitka"},"99824":{"lat":"58.275597","state":"AK","long":"-134.395041","city":"Douglas"},"99802":{"lat":"58.2997","state":"AK","long":"-134.4149","city":"Juneau"},"99836":{"lat":"57.05","state":"AK","long":"-135.333333","city":"Port Alexander"},"99825":{"lat":"58.195","state":"AK","long":"-136.358333","city":"Elfin Cove"},"99803":{"lat":"58.3722","state":"AK","long":"-134.5868","city":"Juneau"},"99826":{"lat":"58.42835","state":"AK","long":"-135.761542","city":"Gustavus"},"99827":{"lat":"59.251886","state":"AK","long":"-135.542032","city":"Haines"},"99850":{"lat":"58.47752","state":"AK","long":"-134.15497","city":"Juneau"}});